[{"name": "BAKER-CROSSROADS", "country": "USA", "lon": "165.25", "yield": "21", "lat": "11.58", "depth": ".027", "date": "1946-07-24 21:35:00", "id": "1"}, {"name": "VENUS", "country": "USA", "lon": "-116.2", "yield": "10", "lat": "37.19", "depth": ".03", "date": "1958-02-22 01:00:00", "id": "10", "fill": "green"}, {"name": "HATCHIE", "country": "USA", "lon": "-116.03", "yield": "20", "lat": "37.058", "depth": ".061", "date": "1963-02-08 16:00:01", "id": "100", "fill": "green"}, {"name": "CLIMAX:Upshot-Knothole", "country": "USA", "lon": "-116.0183", "yield": "61", "lat": "37.0875", "depth": "-.41", "date": "1953-06-04 11:14:57", "id": "1000", "fill": "red"}, {"name": "BRAVO:Castle", "country": "USA", "lon": "165.274", "yield": "15000", "lat": "11.698", "depth": "0", "date": "1954-02-28 18:45:00", "id": "1001", "fill": "red"}, {"name": "ROMEO:Castle", "country": "USA", "lon": "165.274", "yield": "11000", "lat": "11.698", "depth": "0", "date": "1954-03-26 18:30:00", "id": "1002", "fill": "red"}, {"name": "KOON:Castle", "country": "USA", "lon": "165.371", "yield": "110", "lat": "11.503", "depth": "0", "date": "1954-04-06 18:20:00", "id": "1003", "fill": "red"}, {"name": "UNION:Castle", "country": "USA", "lon": "165.39", "yield": "6900", "lat": "11.68", "depth": "0", "date": "1954-04-25 18:10:01", "id": "1004", "fill": "red"}, {"name": "YANKEE:Castle", "country": "USA", "lon": "165.39", "yield": "13500", "lat": "11.68", "depth": "0", "date": "1954-05-04 18:10:00", "id": "1005", "fill": "red"}, {"name": "NECTAR:Castle", "country": "USA", "lon": "162.189", "yield": "1690", "lat": "11.667", "depth": "0", "date": "1954-05-13 18:20:00", "id": "1006", "fill": "red"}, {"name": "WASP:Teapot", "country": "USA", "lon": "-116.0219", "yield": "1", "lat": "37.0867", "depth": "-.23", "date": "1955-02-18 19:59:59", "id": "1007", "fill": "red"}, {"name": "MOTH:Teapot", "country": "USA", "lon": "-116.0211", "yield": "2", "lat": "37.0478", "depth": "-.09", "date": "1955-02-22 13:45:00", "id": "1008", "fill": "red"}, {"name": "TESLA:Teapot", "country": "USA", "lon": "-116.0475", "yield": "7", "lat": "37.1255", "depth": "-.09", "date": "1955-03-01 13:30:00", "id": "1009", "fill": "red"}, {"name": "CHIPMUNK", "country": "USA", "lon": "-116.033", "yield": "20", "lat": "37.049", "depth": ".059", "date": "1963-02-15 17:00:00", "id": "101", "fill": "green"}, {"name": "TURK:Teapot", "country": "USA", "lon": "-116.1175", "yield": "43", "lat": "37.1383", "depth": "-.15", "date": "1955-03-07 13:20:00", "id": "1010", "fill": "red"}, {"name": "HORNET:Teapot", "country": "USA", "lon": "-116.0253", "yield": "4", "lat": "37.0403", "depth": "-.09", "date": "1955-03-12 13:20:00", "id": "1011", "fill": "red"}, {"name": "BEE:Teapot", "country": "USA", "lon": "-116.0239", "yield": "8", "lat": "37.0947", "depth": "-.15", "date": "1955-03-22 13:05:00", "id": "1012", "fill": "red"}, {"name": "APPLE-1:Teapot", "country": "USA", "lon": "-116.1028", "yield": "14", "lat": "37.0956", "depth": "-.15", "date": "1955-03-29 12:55:00", "id": "1013", "fill": "red"}, {"name": "WASP PRIME:Teapot", "country": "USA", "lon": "-116.0219", "yield": "3", "lat": "37.0867", "depth": "-.23", "date": "1955-03-29 17:59:55", "id": "1014", "fill": "red"}, {"name": "HA  :Teapot", "country": "USA", "lon": "-116.0578", "yield": "3", "lat": "37.0286", "depth": "-11.16", "date": "1955-04-06 18:00:04", "id": "1015", "fill": "red"}, {"name": "POST:Teapot", "country": "USA", "lon": "-116.0344", "yield": "2", "lat": "37.1222", "depth": "-.09", "date": "1955-04-09 12:30:00", "id": "1016", "fill": "red"}, {"name": "MET:Teapot", "country": "USA", "lon": "-115.9289", "yield": "22", "lat": "36.7981", "depth": "-.12", "date": "1955-04-15 19:15:00", "id": "1017", "fill": "red"}, {"name": "APPLE-2:Teapot", "country": "USA", "lon": "-116.1025", "yield": "29", "lat": "37.0531", "depth": "-.15", "date": "1955-05-05 12:10:00", "id": "1018", "fill": "red"}, {"name": "ZUCCHINI:Teapot", "country": "USA", "lon": "-116.0239", "yield": "28", "lat": "37.0947", "depth": "-.15", "date": "1955-05-15 12:00:00", "id": "1019", "fill": "red"}, {"name": "CARMEL", "country": "USA", "lon": "-116.081", "yield": "20", "lat": "37.155", "depth": ".163", "date": "1963-02-21 19:47:09", "id": "102", "fill": "green"}, {"name": "PROJECT 56 NO.1:Project 56", "country": "USA", "lon": "-115.961", "yield": "10", "lat": "36.984", "depth": "0", "date": "1955-11-01 22:10:00", "id": "1020", "fill": "red"}, {"name": "PROJECT 56 NO.2:Project 56", "country": "USA", "lon": "-115.959", "yield": "10", "lat": "36.98", "depth": "0", "date": "1955-11-03 21:15:00", "id": "1021", "fill": "red"}, {"name": "PROJECT 56 NO.3:Project 56", "country": "USA", "lon": "-115.957", "yield": "10", "lat": "36.975", "depth": "0", "date": "1955-11-05 19:55:00", "id": "1022", "fill": "red"}, {"name": "PROJECT 56 NO.4:Project 56", "country": "USA", "lon": "-115.955", "yield": "10", "lat": "36.971", "depth": "0", "date": "1956-01-18 21:30:00", "id": "1023", "fill": "red"}, {"name": "LACROSSE:Redwing", "country": "USA", "lon": "162.348", "yield": "40", "lat": "11.554", "depth": "0", "date": "1956-05-04 18:25:30", "id": "1024", "fill": "red"}, {"name": "CHEROKEE:Redwing", "country": "USA", "lon": "165.3", "yield": "3800", "lat": "11.71", "depth": "-1.32", "date": "1956-05-20 17:50:39", "id": "1025", "fill": "red"}, {"name": "ZUNI:Redwing", "country": "USA", "lon": "165.371", "yield": "3500", "lat": "11.503", "depth": "0", "date": "1956-05-27 17:56:00", "id": "1026", "fill": "red"}, {"name": "YUMA:Redwing", "country": "USA", "lon": "162.317", "yield": ".19", "lat": "11.62", "depth": "0", "date": "1956-05-27 18:56:00", "id": "1027", "fill": "red"}, {"name": "ERIE:Redwing", "country": "USA", "lon": "162.354", "yield": "14.9", "lat": "11.544", "depth": "-.09", "date": "1956-05-30 18:15:29", "id": "1028", "fill": "red"}, {"name": "SEMINOLE:Redwing", "country": "USA", "lon": "162.207", "yield": "13.7", "lat": "11.673", "depth": "0", "date": "1956-06-06 00:55:30", "id": "1029", "fill": "red"}, {"name": "KAWEAH", "country": "USA", "lon": "-116.047", "yield": "3", "lat": "37.12", "depth": ".227", "date": "1963-02-21 19:47:00", "id": "103", "fill": "green"}, {"name": "FLATHEAD:Redwing", "country": "USA", "lon": "165.39", "yield": "365", "lat": "11.68", "depth": "0", "date": "1956-06-11 18:26:00", "id": "1030", "fill": "red"}, {"name": "BLACKFOOT:Redwing", "country": "USA", "lon": "162.354", "yield": "8", "lat": "11.544", "depth": "-.06", "date": "1956-06-11 18:26:00", "id": "1031", "fill": "red"}, {"name": "KICKAPOO:Redwing", "country": "USA", "lon": "162.317", "yield": "1.49", "lat": "11.62", "depth": "0", "date": "1956-06-13 23:26:00", "id": "1032", "fill": "red"}, {"name": "OSAGE:Redwing", "country": "USA", "lon": "162.354", "yield": "1.7", "lat": "11.544", "depth": "-.21", "date": "1956-06-16 01:13:53", "id": "1033", "fill": "red"}, {"name": "INCA:Redwing", "country": "USA", "lon": "162.297", "yield": "15.2", "lat": "11.627", "depth": "0", "date": "1956-06-21 21:26:00", "id": "1034", "fill": "red"}, {"name": "DAKOTA:Redwing", "country": "USA", "lon": "165.39", "yield": "1100", "lat": "11.68", "depth": "0", "date": "1956-06-25 18:06:00", "id": "1035", "fill": "red"}, {"name": "MOHAWK:Redwing", "country": "USA", "lon": "162.304", "yield": "360", "lat": "11.624", "depth": "0", "date": "1956-07-02 18:06:00", "id": "1036", "fill": "red"}, {"name": "APACHE:Redwing", "country": "USA", "lon": "162.189", "yield": "1850", "lat": "11.667", "depth": "0", "date": "1956-07-08 18:06:00", "id": "1037", "fill": "red"}, {"name": "NAVAJO:Redwing", "country": "USA", "lon": "165.39", "yield": "4500", "lat": "11.68", "depth": "0", "date": "1956-07-10 17:56:00", "id": "1038", "fill": "red"}, {"name": "TEWA:Redwing", "country": "USA", "lon": "165.34", "yield": "5000", "lat": "11.68", "depth": "0", "date": "1956-07-20 17:46:00", "id": "1039", "fill": "red"}, {"name": "JERBOA", "country": "USA", "lon": "-116.027", "yield": "20", "lat": "37.044", "depth": ".301", "date": "1963-03-01 19:00:00", "id": "104", "fill": "green"}, {"name": "HURON:Redwing", "country": "USA", "lon": "162.189", "yield": "250", "lat": "11.667", "depth": "0", "date": "1956-07-21 18:16:00", "id": "1040", "fill": "red"}, {"name": "PROJECT 57 NO.1:Project 57", "country": "USA", "lon": "-116", "yield": "10", "lat": "37.3", "depth": "0", "date": "1957-04-24 14:27:00", "id": "1041", "fill": "red"}, {"name": "BOLTZMANN:Plumbbob", "country": "USA", "lon": "-116.0236", "yield": "12", "lat": "37.0947", "depth": "-.15", "date": "1957-05-28 11:55:00", "id": "1042", "fill": "red"}, {"name": "FRANKLIN:Plumbbob", "country": "USA", "lon": "-116.0211", "yield": ".14", "lat": "37.0478", "depth": "-.09", "date": "1957-06-02 11:55:00", "id": "1043", "fill": "red"}, {"name": "LASSEN:Plumbbob", "country": "USA", "lon": "-116.0408", "yield": ".0005", "lat": "37.1347", "depth": "-.15", "date": "1957-06-05 11:45:00", "id": "1044", "fill": "red"}, {"name": "WILSON:Plumbbob", "country": "USA", "lon": "-116.0408", "yield": "10", "lat": "37.1347", "depth": "-.15", "date": "1957-06-18 11:45:00", "id": "1045", "fill": "red"}, {"name": "PRISCILLA:Plumbbob", "country": "USA", "lon": "-115.9289", "yield": "37", "lat": "36.7981", "depth": "-.21", "date": "1957-06-24 13:30:00", "id": "1046", "fill": "red"}, {"name": "COULOMB-A:Plumbbob", "country": "USA", "lon": "-116.032", "yield": "10", "lat": "37.047", "depth": "0", "date": "1957-07-01 17:30:00", "id": "1047", "fill": "red"}, {"name": "HOOD:Plumbbob", "country": "USA", "lon": "-116.0408", "yield": "74", "lat": "37.1347", "depth": "-.46", "date": "1957-07-05 11:40:00", "id": "1048", "fill": "red"}, {"name": "DIABLO:Plumbbob", "country": "USA", "lon": "-116.1086", "yield": "17", "lat": "37.1503", "depth": "-.15", "date": "1957-07-15 11:30:00", "id": "1049", "fill": "red"}, {"name": "TOYAH", "country": "USA", "lon": "-116.046", "yield": "20", "lat": "37.126", "depth": ".131", "date": "1963-03-15 16:22:53", "id": "105", "fill": "green"}, {"name": "JOHN:Plumbbob", "country": "USA", "lon": "-116.0531", "yield": "2", "lat": "37.1606", "depth": "-9.14", "date": "1957-07-19 14:00:05", "id": "1050", "fill": "red"}, {"name": "KEPLER:Plumbbob", "country": "USA", "lon": "-116.1", "yield": "10", "lat": "37.0833", "depth": "-.15", "date": "1957-07-24 11:50:00", "id": "1051", "fill": "red"}, {"name": "OWENS:Plumbbob", "country": "USA", "lon": "-116.0408", "yield": "9.7", "lat": "37.1347", "depth": "-.15", "date": "1957-07-25 13:30:00", "id": "1052", "fill": "red"}, {"name": "STOKES:Plumbbob", "country": "USA", "lon": "-116.0236", "yield": "19", "lat": "37.0867", "depth": "-.46", "date": "1957-08-07 12:25:00", "id": "1053", "fill": "red"}, {"name": "SHASTA:Plumbbob", "country": "USA", "lon": "-116.1064", "yield": "17", "lat": "37.128", "depth": "-.15", "date": "1957-08-18 12:00:00", "id": "1054", "fill": "red"}, {"name": "DOPPLER:Plumbbob", "country": "USA", "lon": "-116.0236", "yield": "11", "lat": "37.0867", "depth": "-.46", "date": "1957-08-23 12:30:00", "id": "1055", "fill": "red"}, {"name": "FRANKLIN PRIME:Plumbbob", "country": "USA", "lon": "-116.0236", "yield": "4.7", "lat": "37.0867", "depth": "-.23", "date": "1957-08-30 12:40:00", "id": "1056", "fill": "red"}, {"name": "SMOKY:Plumbbob", "country": "USA", "lon": "-116.0678", "yield": "44", "lat": "37.1872", "depth": "-.21", "date": "1957-08-31 12:30:00", "id": "1057", "fill": "red"}, {"name": "GALILEO:Plumbbob", "country": "USA", "lon": "-116.1025", "yield": "11", "lat": "37.0531", "depth": "-.15", "date": "1957-09-02 12:40:00", "id": "1058", "fill": "red"}, {"name": "WHEELER:Plumbbob", "country": "USA", "lon": "-116.0408", "yield": ".197", "lat": "37.1347", "depth": "-.15", "date": "1957-09-06 12:45:00", "id": "1059", "fill": "red"}, {"name": "GERBIL", "country": "USA", "lon": "-116.019", "yield": "20", "lat": "37.042", "depth": ".28", "date": "1963-03-29 15:49:00", "id": "106", "fill": "green"}, {"name": "COULOMB-B:Plumbbob", "country": "USA", "lon": "-116.032", "yield": ".3", "lat": "37.047", "depth": "0", "date": "1957-09-06 20:05:01", "id": "1060", "fill": "red"}, {"name": "LAPLACE:Plumbbob", "country": "USA", "lon": "-116.0236", "yield": "1", "lat": "37.0867", "depth": "-.23", "date": "1957-09-08 13:00:00", "id": "1061", "fill": "red"}, {"name": "FIZEAU:Plumbbob", "country": "USA", "lon": "-116.0314", "yield": "11", "lat": "37.0336", "depth": "-.15", "date": "1957-09-14 16:45:00", "id": "1062", "fill": "red"}, {"name": "NEWTON:Plumbbob", "country": "USA", "lon": "-116.0236", "yield": "12", "lat": "37.0867", "depth": "-.46", "date": "1957-09-16 12:50:00", "id": "1063", "fill": "red"}, {"name": "WHITNEY:Plumbbob", "country": "USA", "lon": "-116.1175", "yield": "19", "lat": "37.1383", "depth": "-.15", "date": "1957-09-23 12:30:00", "id": "1064", "fill": "red"}, {"name": "CHARLESTON:Plumbbob", "country": "USA", "lon": "-116.0408", "yield": "12", "lat": "37.1347", "depth": "-.46", "date": "1957-09-28 13:00:00", "id": "1065", "fill": "red"}, {"name": "MORGAN:Plumbbob", "country": "USA", "lon": "-116.0408", "yield": "8", "lat": "37.1347", "depth": "-.15", "date": "1957-10-07 13:00:00", "id": "1066", "fill": "red"}, {"name": "COULOMB-C:Project 58", "country": "USA", "lon": "-116.032", "yield": ".5", "lat": "37.047", "depth": "0", "date": "1957-12-09 20:00:00", "id": "1067", "fill": "red"}, {"name": "YUCCA:Hardtack I", "country": "USA", "lon": "163.02", "yield": "1.7", "lat": "12.603", "depth": "-26.21", "date": "1958-04-28 02:40:00", "id": "1068", "fill": "red"}, {"name": "CACTUS:Hardtack I", "country": "USA", "lon": "162.3473", "yield": "18", "lat": "11.5526", "depth": "0", "date": "1958-05-05 18:15:00", "id": "1069", "fill": "red"}, {"name": "FERRET PRIME", "country": "USA", "lon": "-116.025", "yield": "20", "lat": "37.037", "depth": ".242", "date": "1963-04-05 17:52:00", "id": "107", "fill": "green"}, {"name": "FIR:Hardtack I", "country": "USA", "lon": "165.27", "yield": "1360", "lat": "11.7", "depth": "0", "date": "1958-05-11 17:50:00", "id": "1070", "fill": "red"}, {"name": "BUTTERNUT:Hardtack I", "country": "USA", "lon": "162.35", "yield": "81", "lat": "11.54", "depth": "0", "date": "1958-05-11 18:15:00", "id": "1071", "fill": "red"}, {"name": "KOA:Hardtack I", "country": "USA", "lon": "162.2", "yield": "1370", "lat": "11.67", "depth": "0", "date": "1958-05-12 18:30:00", "id": "1072", "fill": "red"}, {"name": "HOLLY:Hardtack I", "country": "USA", "lon": "162.34", "yield": "5.9", "lat": "11.54", "depth": "0", "date": "1958-05-20 18:30:00", "id": "1073", "fill": "red"}, {"name": "NUTMEG:Hardtack I", "country": "USA", "lon": "165.37", "yield": "25.1", "lat": "11.5", "depth": "0", "date": "1958-05-21 21:20:00", "id": "1074", "fill": "red"}, {"name": "YELLOWWOOD:Hardtack I", "country": "USA", "lon": "162.23", "yield": "330", "lat": "11.66", "depth": "0", "date": "1958-05-26 02:00:00", "id": "1075", "fill": "red"}, {"name": "MAGNOLIA:Hardtack I", "country": "USA", "lon": "162.35", "yield": "57", "lat": "11.54", "depth": "0", "date": "1958-05-26 18:00:00", "id": "1076", "fill": "red"}, {"name": "TOBACCO:Hardtack I", "country": "USA", "lon": "162.23", "yield": "11.6", "lat": "11.67", "depth": "0", "date": "1958-05-30 02:15:00", "id": "1077", "fill": "red"}, {"name": "SYCAMORE:Hardtack I", "country": "USA", "lon": "165.27", "yield": "92", "lat": "11.7", "depth": "0", "date": "1958-05-31 03:00:00", "id": "1078", "fill": "red"}, {"name": "ROSE:Hardtack I", "country": "USA", "lon": "162.34", "yield": "15", "lat": "11.54", "depth": "0", "date": "1958-06-02 18:45:00", "id": "1079", "fill": "red"}, {"name": "COYPU", "country": "USA", "lon": "-116.031", "yield": "20", "lat": "37.049", "depth": ".075", "date": "1963-04-10 16:01:30", "id": "108", "fill": "green"}, {"name": "MAPLE:Hardtack I", "country": "USA", "lon": "165.42", "yield": "213", "lat": "11.69", "depth": "0", "date": "1958-06-10 17:30:00", "id": "1080", "fill": "red"}, {"name": "ASPEN:Hardtack I", "country": "USA", "lon": "165.27", "yield": "319", "lat": "11.7", "depth": "0", "date": "1958-06-14 17:30:00", "id": "1081", "fill": "red"}, {"name": "WALNUT:Hardtack I", "country": "USA", "lon": "162.23", "yield": "1450", "lat": "11.66", "depth": "0", "date": "1958-06-14 18:30:00", "id": "1082", "fill": "red"}, {"name": "LINDEN:Hardtack I", "country": "USA", "lon": "162.35", "yield": "11", "lat": "11.54", "depth": "0", "date": "1958-06-18 03:00:00", "id": "1083", "fill": "red"}, {"name": "REDWOOD:Hardtack I", "country": "USA", "lon": "165.42", "yield": "412", "lat": "11.69", "depth": "0", "date": "1958-06-27 17:30:00", "id": "1084", "fill": "red"}, {"name": "ELDER:Hardtack I", "country": "USA", "lon": "162.25", "yield": "880", "lat": "11.65", "depth": "0", "date": "1958-06-27 18:30:00", "id": "1085", "fill": "red"}, {"name": "OAK:Hardtack I", "country": "USA", "lon": "162.11", "yield": "8900", "lat": "11.61", "depth": "0", "date": "1958-06-28 19:30:00", "id": "1086", "fill": "red"}, {"name": "HICKORY:Hardtack I", "country": "USA", "lon": "165.37", "yield": "14", "lat": "11.5", "depth": "0", "date": "1958-06-29 00:00:00", "id": "1087", "fill": "red"}, {"name": "SEQUOIA:Hardtack I", "country": "USA", "lon": "162.34", "yield": "5.2", "lat": "11.56", "depth": "0", "date": "1958-07-01 18:30:00", "id": "1088", "fill": "red"}, {"name": "CEDAR:Hardtack I", "country": "USA", "lon": "165.27", "yield": "220", "lat": "11.7", "depth": "0", "date": "1958-07-02 17:30:00", "id": "1089", "fill": "red"}, {"name": "CUMBERLAND", "country": "USA", "lon": "-116.072", "yield": "20", "lat": "37.157", "depth": ".226", "date": "1963-04-11 16:03:00", "id": "109", "fill": "green"}, {"name": "DOGWOOD:Hardtack I", "country": "USA", "lon": "162.23", "yield": "397", "lat": "11.66", "depth": "0", "date": "1958-07-05 18:30:00", "id": "1090", "fill": "red"}, {"name": "POPLAR:Hardtack I", "country": "USA", "lon": "165.27", "yield": "9300", "lat": "11.7", "depth": "0", "date": "1958-07-12 03:30:00", "id": "1091", "fill": "red"}, {"name": "SCAEVOLA:Hardtack I", "country": "USA", "lon": "162.35", "yield": "10", "lat": "11.54", "depth": "0", "date": "1958-07-14 04:00:00", "id": "1092", "fill": "red"}, {"name": "PISONIA:Hardtack I", "country": "USA", "lon": "162.34", "yield": "255", "lat": "11.54", "depth": "0", "date": "1958-07-17 23:00:00", "id": "1093", "fill": "red"}, {"name": "JUNIPER:Hardtack I", "country": "USA", "lon": "165.37", "yield": "65", "lat": "11.5", "depth": "0", "date": "1958-07-22 04:20:00", "id": "1094", "fill": "red"}, {"name": "OLIVE:Hardtack I", "country": "USA", "lon": "162.23", "yield": "202", "lat": "11.66", "depth": "0", "date": "1958-07-22 20:30:00", "id": "1095", "fill": "red"}, {"name": "PINE:Hardtack I", "country": "USA", "lon": "162.22", "yield": "2000", "lat": "11.65", "depth": "0", "date": "1958-07-26 20:30:00", "id": "1096", "fill": "red"}, {"name": "TEAK:Hardtack I", "country": "USA", "lon": "-169.53", "yield": "3800", "lat": "16.73", "depth": "-76.81", "date": "1958-08-01 10:50:06", "id": "1097", "fill": "red"}, {"name": "QUINCE:Hardtack I", "country": "USA", "lon": "162.354", "yield": "10", "lat": "11.544", "depth": "0", "date": "1958-08-06 02:15:00", "id": "1098", "fill": "red"}, {"name": "ORANGE:Hardtack I", "country": "USA", "lon": "-169.53", "yield": "3800", "lat": "16.37", "depth": "-42.98", "date": "1958-08-12 10:30:09", "id": "1099", "fill": "red"}, {"name": "URANUS", "country": "USA", "lon": "-116.2", "yield": "10", "lat": "37.19", "depth": ".035", "date": "1958-03-14 22:00:00", "id": "11", "fill": "green"}, {"name": "KOOTANAI", "country": "USA", "lon": "-116.037", "yield": "20", "lat": "37.121", "depth": ".182", "date": "1963-04-24 16:09:30", "id": "110", "fill": "green"}, {"name": "FIG:Hardtack I", "country": "USA", "lon": "162.354", "yield": ".02", "lat": "11.544", "depth": "0", "date": "1958-08-18 04:00:00", "id": "1100", "fill": "red"}, {"name": "ARGUS I:Argus", "country": "USA", "lon": "-10.925", "yield": "2", "lat": "-38.8", "depth": "-200", "date": "1958-08-27 02:27:00", "id": "1101", "fill": "red"}, {"name": "ARGUS II:Argus", "country": "USA", "lon": "-8.7", "yield": "2", "lat": "-49.4", "depth": "-200", "date": "1958-08-30 09:17:00", "id": "1102", "fill": "red"}, {"name": "ARGUS III:Argus", "country": "USA", "lon": "-10.45", "yield": "2", "lat": "-49.5", "depth": "-200", "date": "1958-09-06 22:12:00", "id": "1103", "fill": "red"}, {"name": "EDDY:Hardtack II", "country": "USA", "lon": "-116.0236", "yield": ".083", "lat": "37.0867", "depth": "-.15", "date": "1958-09-19 14:00:00", "id": "1104", "fill": "red"}, {"name": "MORA:Hardtack II", "country": "USA", "lon": "-116.0236", "yield": "2", "lat": "37.0867", "depth": "-.46", "date": "1958-09-29 14:05:00", "id": "1105", "fill": "red"}, {"name": "HIDALGO:Hardtack II", "country": "USA", "lon": "-116.0236", "yield": ".077", "lat": "37.0867", "depth": "-.11", "date": "1958-10-05 14:10:00", "id": "1106", "fill": "red"}, {"name": "QUAY:Hardtack II", "country": "USA", "lon": "-116.0236", "yield": ".079", "lat": "37.0947", "depth": "-.03", "date": "1958-10-10 14:30:00", "id": "1107", "fill": "red"}, {"name": "LEA:Hardtack II", "country": "USA", "lon": "-116.0236", "yield": "1.4", "lat": "37.0867", "depth": "-.46", "date": "1958-10-13 13:20:00", "id": "1108", "fill": "red"}, {"name": "HAMILTON:Hardtack II", "country": "USA", "lon": "-115.9322", "yield": ".0012", "lat": "36.8022", "depth": "-.02", "date": "1958-10-15 16:00:00", "id": "1109", "fill": "red"}, {"name": "PAISANO", "country": "USA", "lon": "-116.037", "yield": "20", "lat": "37.12", "depth": ".057", "date": "1963-04-24 16:09:30", "id": "111", "fill": "green"}, {"name": "DONA ANA:Hardtack II", "country": "USA", "lon": "-116.0236", "yield": ".037", "lat": "37.0867", "depth": "-.15", "date": "1958-10-16 14:20:00", "id": "1110", "fill": "red"}, {"name": "VESTA:Hardtack II", "country": "USA", "lon": "-116.0347", "yield": ".024", "lat": "37.1225", "depth": "0", "date": "1958-10-17 23:00:00", "id": "1111", "fill": "red"}, {"name": "RIO ARRIBA:Hardtack II", "country": "USA", "lon": "-116.0258", "yield": ".09", "lat": "37.0411", "depth": "-.02", "date": "1958-10-18 14:25:00", "id": "1112", "fill": "red"}, {"name": "SOCORRO:Hardtack II", "country": "USA", "lon": "-116.0236", "yield": "6", "lat": "37.0867", "depth": "-.46", "date": "1958-10-22 13:30:00", "id": "1113", "fill": "red"}, {"name": "WRANGELL:Hardtack II", "country": "USA", "lon": "-115.9289", "yield": ".115", "lat": "36.7981", "depth": "-.46", "date": "1958-10-22 16:50:00", "id": "1114", "fill": "red"}, {"name": "OBERON:Hardtack II", "country": "USA", "lon": "-116.07", "yield": "10", "lat": "37.19", "depth": "-.008", "date": "1958-10-22 20:30:00", "id": "1115", "fill": "red"}, {"name": "RUSHMORE:Hardtack II", "country": "USA", "lon": "-116.0408", "yield": ".188", "lat": "37.1347", "depth": "-.15", "date": "1958-10-22 23:40:00", "id": "1116", "fill": "red"}, {"name": "CATRON:Hardtack II", "country": "USA", "lon": "-116.0269", "yield": ".021", "lat": "37.0431", "depth": "-.02", "date": "1958-10-24 15:00:00", "id": "1117", "fill": "red"}, {"name": "JUNO:Hardtack II", "country": "USA", "lon": "-116.0378", "yield": ".0017", "lat": "37.1233", "depth": "0", "date": "1958-10-24 16:01:00", "id": "1118", "fill": "red"}, {"name": "CERES:Hardtack II", "country": "USA", "lon": "-116.0686", "yield": ".0007", "lat": "37.1814", "depth": "-.01", "date": "1958-10-26 04:00:00", "id": "1119", "fill": "red"}, {"name": "GUNDI PRIME", "country": "USA", "lon": "-116.016", "yield": "20", "lat": "37.049", "depth": ".272", "date": "1963-05-09 18:19:00", "id": "112", "fill": "green"}, {"name": "SANFORD:Hardtack II", "country": "USA", "lon": "-115.9289", "yield": "4.9", "lat": "36.7981", "depth": "-.46", "date": "1958-10-26 10:20:00", "id": "1120", "fill": "red"}, {"name": "DE BACA:Hardtack II", "country": "USA", "lon": "-116.0236", "yield": "2.2", "lat": "37.0867", "depth": "-.46", "date": "1958-10-26 16:00:00", "id": "1121", "fill": "red"}, {"name": "CHAVES/CHAVEZ:Hardtack II", "country": "USA", "lon": "-116.04", "yield": ".0006", "lat": "37.04", "depth": "-.015", "date": "1958-10-27 14:30:00", "id": "1122", "fill": "red"}, {"name": "MAZAMA:Hardtack II", "country": "USA", "lon": "-116.04", "yield": "10", "lat": "37.12", "depth": "-.015", "date": "1958-10-29 11:20:00", "id": "1123", "fill": "red"}, {"name": "HUMBOLDT:Hardtack II", "country": "USA", "lon": "-116.0247", "yield": ".0078", "lat": "37.0478", "depth": "-.01", "date": "1958-10-29 14:45:00", "id": "1124", "fill": "red"}, {"name": "SANTA FE:Hardtack II", "country": "USA", "lon": "-116.0236", "yield": "1.3", "lat": "37.0867", "depth": "-.46", "date": "1958-10-30 03:00:00", "id": "1125", "fill": "red"}, {"name": "GANYMEDE:Hardtack II", "country": "USA", "lon": "-116.03", "yield": "10", "lat": "37.12", "depth": "0", "date": "1958-10-30 11:00:00", "id": "1126", "fill": "red"}, {"name": "TITANIA:Hardtack II", "country": "USA", "lon": "-116.0692", "yield": ".0002", "lat": "37.1772", "depth": "-.01", "date": "1958-10-30 20:34:00", "id": "1127", "fill": "red"}, {"name": "ADOBE:Dominic", "country": "USA", "lon": "-157.27", "yield": "190", "lat": "1.65", "depth": "-.88", "date": "1962-04-25 15:46:00", "id": "1128", "fill": "red"}, {"name": "AZTEC:Dominic", "country": "USA", "lon": "-157.27", "yield": "410", "lat": "1.65", "depth": "-.8", "date": "1962-04-27 16:02:00", "id": "1129", "fill": "red"}, {"name": "HARKEE", "country": "USA", "lon": "-116.033", "yield": "20", "lat": "37.048", "depth": ".241", "date": "1963-05-17 14:55:00", "id": "113", "fill": "green"}, {"name": "ARKANSAS:Dominic", "country": "USA", "lon": "-157.22", "yield": "1090", "lat": "1.583", "depth": "-1.53", "date": "1962-05-02 18:02:00", "id": "1130", "fill": "red"}, {"name": "QUESTA:Dominic", "country": "USA", "lon": "-157.22", "yield": "670", "lat": "1.583", "depth": "-1.59", "date": "1962-05-04 19:05:00", "id": "1131", "fill": "red"}, {"name": "FRIGATE BIRD:Dominic", "country": "USA", "lon": "-149.4167", "yield": "1000", "lat": "4.8333", "depth": "-3.35", "date": "1962-05-06 14:30:16", "id": "1132", "fill": "red"}, {"name": "YUKON:Dominic", "country": "USA", "lon": "-157.27", "yield": "100", "lat": "1.65", "depth": "-.88", "date": "1962-05-08 18:01:00", "id": "1133", "fill": "red"}, {"name": "MESILLA:Dominic", "country": "USA", "lon": "-157.27", "yield": "100", "lat": "1.65", "depth": "-.75", "date": "1962-05-09 17:01:00", "id": "1134", "fill": "red"}, {"name": "MUSKEGON:Dominic", "country": "USA", "lon": "-157.27", "yield": "50", "lat": "1.65", "depth": "-.91", "date": "1962-05-11 15:37:00", "id": "1135", "fill": "red"}, {"name": "ENCINO:Dominic", "country": "USA", "lon": "-157.25", "yield": "500", "lat": "1.62", "depth": "-1.68", "date": "1962-05-12 17:03:00", "id": "1136", "fill": "red"}, {"name": "SWANEE:Dominic", "country": "USA", "lon": "-157.27", "yield": "97", "lat": "1.65", "depth": "-.9", "date": "1962-05-14 15:22:00", "id": "1137", "fill": "red"}, {"name": "CHETCO:Dominic", "country": "USA", "lon": "-157.27", "yield": "73", "lat": "1.65", "depth": "-2.1", "date": "1962-05-19 15:37:00", "id": "1138", "fill": "red"}, {"name": "TANANA:Dominic", "country": "USA", "lon": "-157.27", "yield": "2.6", "lat": "1.65", "depth": "-2.75", "date": "1962-05-25 16:09:00", "id": "1139", "fill": "red"}, {"name": "TEJON", "country": "USA", "lon": "-116.017", "yield": "20", "lat": "37.044", "depth": ".075", "date": "1963-05-17 14:55:00", "id": "114", "fill": "green"}, {"name": "NAMBE:Dominic", "country": "USA", "lon": "-157.27", "yield": "43", "lat": "1.65", "depth": "-2.18", "date": "1962-05-27 17:03:00", "id": "1140", "fill": "red"}, {"name": "ALMA:Dominic", "country": "USA", "lon": "-157.22", "yield": "782", "lat": "1.583", "depth": "-2.7", "date": "1962-06-08 17:03:00", "id": "1141", "fill": "red"}, {"name": "TRUCKEE:Dominic", "country": "USA", "lon": "-157.27", "yield": "210", "lat": "1.65", "depth": "-2.12", "date": "1962-06-09 15:37:00", "id": "1142", "fill": "red"}, {"name": "YESO:Dominic", "country": "USA", "lon": "-157.23", "yield": "3000", "lat": "1.5", "depth": "-2.54", "date": "1962-06-10 07:01:00", "id": "1143", "fill": "red"}, {"name": "HARLEM:Dominic", "country": "USA", "lon": "-157.2", "yield": "1200", "lat": "1.55", "depth": "-4.16", "date": "1962-06-12 15:37:00", "id": "1144", "fill": "red"}, {"name": "RINCONADA:Dominic", "country": "USA", "lon": "-157.2", "yield": "800", "lat": "1.55", "depth": "-2.78", "date": "1962-06-15 16:01:00", "id": "1145", "fill": "red"}, {"name": "DULCE:Dominic", "country": "USA", "lon": "-157.27", "yield": "52", "lat": "1.65", "depth": "-2.77", "date": "1962-06-17 16:01:00", "id": "1146", "fill": "red"}, {"name": "PETIT:Dominic", "country": "USA", "lon": "-157.2", "yield": "2.2", "lat": "1.55", "depth": "-4.57", "date": "1962-06-19 15:01:00", "id": "1147", "fill": "red"}, {"name": "OTOWI:Dominic", "country": "USA", "lon": "-157.27", "yield": "81.5", "lat": "1.65", "depth": "-2.75", "date": "1962-06-22 16:01:00", "id": "1148", "fill": "red"}, {"name": "BIGHORN:Dominic", "country": "USA", "lon": "-157.2", "yield": "7650", "lat": "1.33", "depth": "-3.6", "date": "1962-06-27 15:19:00", "id": "1149", "fill": "red"}, {"name": "STONES", "country": "USA", "lon": "-116.04", "yield": "200", "lat": "37.111", "depth": ".393", "date": "1963-05-22 15:40:00", "id": "115", "fill": "green"}, {"name": "BLUESTONE:Dominic", "country": "USA", "lon": "-157.22", "yield": "1270", "lat": "1.4", "depth": "-1.52", "date": "1962-06-30 15:21:00", "id": "1150", "fill": "red"}, {"name": "LITTLE FELLER II:Sunbeam", "country": "USA", "lon": "-116.3", "yield": ".022", "lat": "37.11", "depth": "-.001", "date": "1962-07-07 19:00:00", "id": "1151", "fill": "red"}, {"name": "&nbsp;", "country": "SOV", "lon": "78.0433", "yield": "20", "lat": "49.8222", "depth": ".195", "date": "1967-06-29 02:57:00", "id": "1152", "fill": "green"}, {"name": "&nbsp;", "country": "SOV", "lon": "78.1156", "yield": "20", "lat": "49.8442", "depth": ".161", "date": "1967-07-15 03:27:00", "id": "1153", "fill": "green"}, {"name": "&nbsp;", "country": "SOV", "lon": "78.0503", "yield": "20", "lat": "49.7544", "depth": ".16", "date": "1967-08-04 06:58:00", "id": "1154", "fill": "green"}, {"name": "&nbsp;", "country": "SOV", "lon": "78.0256", "yield": "20", "lat": "49.7419", "depth": "0", "date": "1967-09-02 04:04:00", "id": "1155", "fill": "green"}, {"name": "&nbsp;", "country": "SOV", "lon": "77.7281", "yield": "20", "lat": "49.9372", "depth": ".23", "date": "1967-09-16 04:04:00", "id": "1156", "fill": "green"}, {"name": "&nbsp;", "country": "SOV", "lon": "77.6911", "yield": "10", "lat": "49.9596", "depth": ".229", "date": "1967-09-22 05:03:59", "id": "1157", "fill": "green"}, {"name": "&nbsp;", "country": "SOV", "lon": "77.9978", "yield": "20", "lat": "49.7844", "depth": ".181", "date": "1967-10-17 05:04:00", "id": "1158", "fill": "green"}, {"name": "&nbsp;", "country": "SOV", "lon": "77.9994", "yield": "20", "lat": "49.7972", "depth": ".173", "date": "1967-10-30 06:04:00", "id": "1159", "fill": "green"}, {"name": "PLEASANT", "country": "USA", "lon": "-116.043", "yield": "20", "lat": "37.128", "depth": ".211", "date": "1963-05-29 15:03:30", "id": "116", "fill": "green"}, {"name": "&nbsp;", "country": "SOV", "lon": "77.6868", "yield": "20", "lat": "49.9419", "depth": ".227", "date": "1967-11-22 04:04:00", "id": "1160", "fill": "green"}, {"name": "&nbsp;", "country": "SOV", "lon": "78.1708", "yield": "20", "lat": "49.8183", "depth": ".15", "date": "1967-12-08 06:04:00", "id": "1161", "fill": "green"}, {"name": "&nbsp;", "country": "SOV", "lon": "78.0469", "yield": "20", "lat": "49.7539", "depth": ".237", "date": "1968-01-07 03:47:00", "id": "1162", "fill": "green"}, {"name": "&nbsp;", "country": "SOV", "lon": "78.1072", "yield": "20", "lat": "49.8417", "depth": ".127", "date": "1968-04-24 10:36:00", "id": "1163", "fill": "green"}, {"name": "&nbsp;", "country": "SOV", "lon": "78.0928", "yield": "10", "lat": "49.8333", "depth": "0", "date": "1968-05-23 00:00:00", "id": "1164", "fill": "green"}, {"name": "&nbsp;", "country": "SOV", "lon": "78.15", "yield": "20", "lat": "49.7986", "depth": ".149", "date": "1968-06-11 03:06:00", "id": "1165", "fill": "green"}, {"name": "&nbsp;", "country": "SOV", "lon": "78.9855", "yield": "20", "lat": "49.9803", "depth": ".316", "date": "1968-06-19 05:06:00", "id": "1166", "fill": "green"}, {"name": "&nbsp;", "country": "SOV", "lon": "78.0992", "yield": "20", "lat": "49.7556", "depth": ".172", "date": "1968-07-12 12:08:00", "id": "1167", "fill": "green"}, {"name": "&nbsp;", "country": "SOV", "lon": "78.0811", "yield": "20", "lat": "49.8206", "depth": ".208", "date": "1968-08-20 04:06:00", "id": "1168", "fill": "green"}, {"name": "&nbsp;", "country": "SOV", "lon": "78.0808", "yield": "20", "lat": "49.7381", "depth": ".162", "date": "1968-09-05 04:06:00", "id": "1169", "fill": "green"}, {"name": "YUBA", "country": "USA", "lon": "-116.21", "yield": "3.1", "lat": "37.197", "depth": ".243", "date": "1963-06-05 17:00:00", "id": "117", "fill": "green"}, {"name": "&nbsp;", "country": "SOV", "lon": "78.1056", "yield": "60", "lat": "49.8042", "depth": ".29", "date": "1968-09-29 03:43:00", "id": "1170", "fill": "green"}, {"name": "&nbsp;", "country": "SOV", "lon": "78.0928", "yield": "20", "lat": "49.8333", "depth": "0", "date": "1968-10-29 03:54:00", "id": "1172", "fill": "green"}, {"name": "&nbsp;", "country": "SOV", "lon": "78.1444", "yield": "20", "lat": "49.7997", "depth": ".125", "date": "1968-11-09 02:54:00", "id": "1173", "fill": "green"}, {"name": "&nbsp;", "country": "SOV", "lon": "78.0878", "yield": "20", "lat": "49.7408", "depth": ".194", "date": "1968-12-18 05:02:00", "id": "1175", "fill": "green"}, {"name": "&nbsp;", "country": "SOV", "lon": "78.0597", "yield": "150", "lat": "49.8283", "depth": ".214", "date": "1969-03-07 08:27:00", "id": "1176", "fill": "green"}, {"name": "&nbsp;", "country": "SOV", "lon": "78.0536", "yield": "20", "lat": "49.7533", "depth": "0", "date": "1969-04-04 04:57:00", "id": "1177", "fill": "green"}, {"name": "&nbsp;", "country": "SOV", "lon": "78.1047", "yield": "20", "lat": "49.7356", "depth": "0", "date": "1969-04-13 04:04:00", "id": "1178", "fill": "green"}, {"name": "&nbsp;", "country": "SOV", "lon": "78.0817", "yield": "20", "lat": "49.7678", "depth": ".184", "date": "1969-05-16 04:03:00", "id": "1179", "fill": "green"}, {"name": "APSHAPA", "country": "USA", "lon": "-116.041", "yield": "20", "lat": "37.125", "depth": ".089", "date": "1963-06-06 16:58:00", "id": "118", "fill": "green"}, {"name": "&nbsp;", "country": "SOV", "lon": "77.6942", "yield": "20", "lat": "49.9503", "depth": ".258", "date": "1969-05-31 05:02:00", "id": "1180", "fill": "green"}, {"name": "&nbsp;", "country": "SOV", "lon": "78.1092", "yield": "20", "lat": "49.7542", "depth": ".219", "date": "1969-07-04 02:47:00", "id": "1181", "fill": "green"}, {"name": "&nbsp;", "country": "SOV", "lon": "78.1372", "yield": "16", "lat": "49.8197", "depth": ".175", "date": "1969-07-23 02:47:00", "id": "1182", "fill": "green"}, {"name": "&nbsp;", "country": "SOV", "lon": "77.9864", "yield": "20", "lat": "49.7778", "depth": ".19", "date": "1969-09-11 04:02:00", "id": "1183", "fill": "green"}, {"name": "&nbsp;", "country": "SOV", "lon": "78.1081", "yield": "20", "lat": "49.7864", "depth": ".144", "date": "1969-10-01 04:03:00", "id": "1184", "fill": "green"}, {"name": "&nbsp;", "country": "SOV", "lon": "78.1156", "yield": "20", "lat": "49.8442", "depth": "0", "date": "1969-10-30 00:00:00", "id": "1185", "fill": "green"}, {"name": "&nbsp;", "country": "SOV", "lon": "78.0597", "yield": "20", "lat": "49.8367", "depth": "0", "date": "1969-11-27 05:02:00", "id": "1186", "fill": "green"}, {"name": "&nbsp;", "country": "SOV", "lon": "78.9558", "yield": "125", "lat": "49.9243", "depth": ".472", "date": "1969-11-30 03:33:00", "id": "1187", "fill": "green"}, {"name": "&nbsp;", "country": "SOV", "lon": "77.7142", "yield": "40", "lat": "49.9373", "depth": ".388", "date": "1969-12-28 03:47:00", "id": "1188", "fill": "green"}, {"name": "&nbsp;", "country": "SOV", "lon": "78.1044", "yield": "20", "lat": "49.7322", "depth": ".086", "date": "1969-12-29 04:02:00", "id": "1189", "fill": "green"}, {"name": "HUTIA", "country": "USA", "lon": "-116.037", "yield": "20", "lat": "37.044", "depth": ".135", "date": "1963-06-06 14:00:00", "id": "119", "fill": "green"}, {"name": "&nbsp;", "country": "SOV", "lon": "78.1131", "yield": "20", "lat": "49.7922", "depth": ".214", "date": "1970-01-29 07:03:00", "id": "1190", "fill": "green"}, {"name": "&nbsp;", "country": "SOV", "lon": "78.1025", "yield": "10", "lat": "49.7308", "depth": "0", "date": "1970-02-18 00:00:00", "id": "1191", "fill": "green"}, {"name": "&nbsp;", "country": "SOV", "lon": "78.0033", "yield": "20", "lat": "49.7444", "depth": ".138", "date": "1970-03-27 05:03:00", "id": "1192", "fill": "green"}, {"name": "&nbsp;", "country": "SOV", "lon": "78.1011", "yield": "20", "lat": "49.7314", "depth": ".066", "date": "1970-05-27 04:03:00", "id": "1193", "fill": "green"}, {"name": "&nbsp;", "country": "SOV", "lon": "78.0533", "yield": "150", "lat": "49.7822", "depth": ".332", "date": "1970-06-28 01:58:00", "id": "1194", "fill": "green"}, {"name": "&nbsp;", "country": "SOV", "lon": "78.1131", "yield": "20", "lat": "49.7933", "depth": "0", "date": "1970-06-28 01:58:00", "id": "1195", "fill": "green"}, {"name": "&nbsp;", "country": "SOV", "lon": "77.6729", "yield": "20", "lat": "49.9524", "depth": ".225", "date": "1970-07-21 03:03:00", "id": "1196", "fill": "green"}, {"name": "&nbsp;", "country": "SOV", "lon": "78.1322", "yield": "20", "lat": "49.8136", "depth": ".154", "date": "1970-07-24 03:57:00", "id": "1197", "fill": "green"}, {"name": "&nbsp;", "country": "SOV", "lon": "77.9975", "yield": "20", "lat": "49.7889", "depth": ".212", "date": "1970-09-06 04:03:00", "id": "1198", "fill": "green"}, {"name": "&nbsp;", "country": "SOV", "lon": "78.0053", "yield": "20", "lat": "49.7525", "depth": "0", "date": "1970-09-06 04:03:00", "id": "1199", "fill": "green"}, {"name": "WAHOO", "country": "USA", "lon": "162.178", "yield": "9", "lat": "11.344", "depth": ".152", "date": "1958-05-16 01:30:00", "id": "12"}, {"name": "MATACO", "country": "USA", "lon": "-116.019", "yield": "20", "lat": "37.046", "depth": ".196", "date": "1963-06-14 14:10:00", "id": "120", "fill": "green"}, {"name": "&nbsp;", "country": "SOV", "lon": "77.7624", "yield": "20", "lat": "49.9892", "depth": ".249", "date": "1970-11-04 06:03:00", "id": "1200", "fill": "green"}, {"name": "&nbsp;", "country": "SOV", "lon": "78.1017", "yield": "150", "lat": "49.7519", "depth": ".193", "date": "1970-12-17 07:01:00", "id": "1201", "fill": "green"}, {"name": "&nbsp;", "country": "SOV", "lon": "78.1686", "yield": "20", "lat": "49.8053", "depth": "0", "date": "1971-01-29 05:03:00", "id": "1202", "fill": "green"}, {"name": "&nbsp;", "country": "SOV", "lon": "78.1131", "yield": "150", "lat": "49.7933", "depth": ".283", "date": "1971-03-22 04:33:00", "id": "1203", "fill": "green"}, {"name": "&nbsp;", "country": "SOV", "lon": "78.0828", "yield": "20", "lat": "49.7744", "depth": "0", "date": "1971-03-22 04:33:00", "id": "1204", "fill": "green"}, {"name": "&nbsp;", "country": "SOV", "lon": "78.0386", "yield": ".23", "lat": "49.8322", "depth": "0", "date": "1971-04-09 02:33:00", "id": "1205", "fill": "green"}, {"name": "&nbsp;", "country": "SOV", "lon": "78.0367", "yield": "90", "lat": "49.7803", "depth": ".296", "date": "1971-04-25 03:33:00", "id": "1206", "fill": "green"}, {"name": "&nbsp;", "country": "SOV", "lon": "78.145", "yield": "20", "lat": "49.8042", "depth": ".132", "date": "1971-05-25 04:03:00", "id": "1207", "fill": "green"}, {"name": "&nbsp;", "country": "SOV", "lon": "77.6603", "yield": "16", "lat": "49.9754", "depth": ".299", "date": "1971-06-06 04:03:00", "id": "1208", "fill": "green"}, {"name": "&nbsp;", "country": "SOV", "lon": "77.6408", "yield": "20", "lat": "49.969", "depth": ".29", "date": "1971-06-19 04:04:00", "id": "1209", "fill": "green"}, {"name": "KENNEBEC", "country": "USA", "lon": "-116.069", "yield": "20", "lat": "37.131", "depth": ".226", "date": "1963-06-25 23:00:00", "id": "121", "fill": "green"}, {"name": "&nbsp;", "country": "SOV", "lon": "78.9805", "yield": "20", "lat": "49.946", "depth": ".217", "date": "1971-06-30 03:57:00", "id": "1210", "fill": "green"}, {"name": "&nbsp;", "country": "SOV", "lon": "77.6414", "yield": "12", "lat": "49.9779", "depth": ".237", "date": "1971-10-09 06:03:00", "id": "1211", "fill": "green"}, {"name": "&nbsp;", "country": "SOV", "lon": "77.5973", "yield": "23", "lat": "49.9738", "depth": ".324", "date": "1971-10-21 06:03:00", "id": "1212", "fill": "green"}, {"name": "&nbsp;", "country": "SOV", "lon": "78.0814", "yield": "20", "lat": "49.7378", "depth": ".203", "date": "1971-11-29 06:03:00", "id": "1213", "fill": "green"}, {"name": "&nbsp;", "country": "SOV", "lon": "77.9933", "yield": "20", "lat": "49.8306", "depth": ".115", "date": "1971-12-15 07:54:00", "id": "1214", "fill": "green"}, {"name": "&nbsp;", "country": "SOV", "lon": "78.0475", "yield": "150", "lat": "49.755", "depth": ".249", "date": "1971-12-30 06:21:00", "id": "1215", "fill": "green"}, {"name": "&nbsp;", "country": "SOV", "lon": "78.0061", "yield": "20", "lat": "49.7492", "depth": "0", "date": "1971-12-30 06:21:00", "id": "1216", "fill": "green"}, {"name": "&nbsp;", "country": "SOV", "lon": "78.8781", "yield": "16", "lat": "50.0243", "depth": ".295", "date": "1972-02-10 05:03:00", "id": "1217", "fill": "green"}, {"name": "&nbsp;", "country": "SOV", "lon": "78.1181", "yield": "20", "lat": "49.7519", "depth": ".171", "date": "1972-03-10 04:57:00", "id": "1218", "fill": "green"}, {"name": "&nbsp;", "country": "SOV", "lon": "78.0825", "yield": "20", "lat": "49.7342", "depth": ".124", "date": "1972-03-28 04:22:00", "id": "1219", "fill": "green"}, {"name": "PEKAN", "country": "USA", "lon": "-116.017", "yield": "20", "lat": "37.042", "depth": ".302", "date": "1963-08-12 23:45:00", "id": "122", "fill": "green"}, {"name": "&nbsp;", "country": "SOV", "lon": "78.1072", "yield": "10", "lat": "49.8417", "depth": "0", "date": "1972-04-20 00:00:00", "id": "1220", "fill": "green"}, {"name": "&nbsp;", "country": "SOV", "lon": "78.1094", "yield": "20", "lat": "49.8317", "depth": ".208", "date": "1972-06-07 01:28:00", "id": "1221", "fill": "green"}, {"name": "&nbsp;", "country": "SOV", "lon": "77.9", "yield": "20", "lat": "49.7731", "depth": "0", "date": "1972-06-07 01:28:00", "id": "1222", "fill": "green"}, {"name": "&nbsp;", "country": "SOV", "lon": "78.1092", "yield": "20", "lat": "49.7361", "depth": ".081", "date": "1972-07-06 01:03:00", "id": "1223", "fill": "green"}, {"name": "&nbsp;", "country": "SOV", "lon": "78.0572", "yield": "8", "lat": "49.7706", "depth": ".139", "date": "1972-08-16 03:17:00", "id": "1224", "fill": "green"}, {"name": "&nbsp;", "country": "SOV", "lon": "77.7166", "yield": "20", "lat": "49.982", "depth": ".285", "date": "1972-08-26 03:47:00", "id": "1225", "fill": "green"}, {"name": "&nbsp;", "country": "SOV", "lon": "77.6409", "yield": "2", "lat": "49.9594", "depth": ".185", "date": "1972-09-02 08:57:00", "id": "1226", "fill": "green"}, {"name": "&nbsp;", "country": "SOV", "lon": "78.8173", "yield": "165", "lat": "49.927", "depth": ".521", "date": "1972-11-02 01:27:00", "id": "1227", "fill": "green"}, {"name": "&nbsp;", "country": "SOV", "lon": "78.0919", "yield": "150", "lat": "49.8261", "depth": ".264", "date": "1972-12-10 04:27:00", "id": "1228", "fill": "green"}, {"name": "&nbsp;", "country": "SOV", "lon": "78.9956", "yield": "140", "lat": "50.027", "depth": ".478", "date": "1972-12-10 04:27:10", "id": "1229", "fill": "green"}, {"name": "SATS0P", "country": "USA", "lon": "-116.077", "yield": "20", "lat": "37.154", "depth": ".225", "date": "1963-08-15 13:00:00", "id": "123", "fill": "green"}, {"name": "&nbsp;", "country": "SOV", "lon": "78.1072", "yield": "20", "lat": "49.7361", "depth": ".132", "date": "1972-12-28 04:27:00", "id": "1230", "fill": "green"}, {"name": "&nbsp;", "country": "SOV", "lon": "78.1067", "yield": "150", "lat": "49.8158", "depth": "0", "date": "1973-02-16 05:03:00", "id": "1231", "fill": "green"}, {"name": "&nbsp;", "country": "SOV", "lon": "77.614", "yield": "20", "lat": "49.984", "depth": "0", "date": "1973-04-19 04:33:00", "id": "1232", "fill": "green"}, {"name": "&nbsp;", "country": "SOV", "lon": "78.0128", "yield": "20", "lat": "49.7911", "depth": "0", "date": "1973-07-10 01:27:00", "id": "1233", "fill": "green"}, {"name": "&nbsp;", "country": "SOV", "lon": "78.8175", "yield": "1500", "lat": "49.9689", "depth": "0", "date": "1973-07-23 01:23:00", "id": "1234", "fill": "green"}, {"name": "&nbsp;", "country": "SOV", "lon": "78.8556", "yield": "10", "lat": "49.9617", "depth": "0", "date": "1973-09-20 00:00:00", "id": "1235", "fill": "green"}, {"name": "&nbsp;", "country": "SOV", "lon": "78.1325", "yield": "20", "lat": "49.7522", "depth": "0", "date": "1973-10-26 04:27:00", "id": "1236", "fill": "green"}, {"name": "&nbsp;", "country": "SOV", "lon": "78.9331", "yield": "20", "lat": "50.0631", "depth": "0", "date": "1973-11-04 03:57:00", "id": "1237", "fill": "green"}, {"name": "&nbsp;", "country": "SOV", "lon": "78.9872", "yield": "150", "lat": "50.0469", "depth": "0", "date": "1973-12-14 07:47:00", "id": "1238", "fill": "green"}, {"name": "&nbsp;", "country": "SOV", "lon": "78.0864", "yield": "20", "lat": "49.7394", "depth": "0", "date": "1973-12-31 04:03:00", "id": "1239", "fill": "green"}, {"name": "KOHOCTON", "country": "USA", "lon": "-116.036", "yield": "20", "lat": "37.125", "depth": ".255", "date": "1963-08-23 13:20:00", "id": "124", "fill": "green"}, {"name": "&nbsp;", "country": "SOV", "lon": "78.0417", "yield": "20", "lat": "49.8233", "depth": "0", "date": "1974-01-30 04:57:00", "id": "1240", "fill": "green"}, {"name": "&nbsp;", "country": "SOV", "lon": "78.1094", "yield": "10", "lat": "49.8317", "depth": "0", "date": "1974-02-28 00:00:00", "id": "1241", "fill": "green"}, {"name": "&nbsp;", "country": "SOV", "lon": "78.9264", "yield": "20", "lat": "50.0244", "depth": "0", "date": "1974-04-16 05:53:00", "id": "1242", "fill": "green"}, {"name": "&nbsp;", "country": "SOV", "lon": "78.0358", "yield": "20", "lat": "49.7397", "depth": "0", "date": "1974-05-16 03:03:00", "id": "1243", "fill": "green"}, {"name": "&nbsp;", "country": "SOV", "lon": "78.8442", "yield": "150", "lat": "49.9606", "depth": "0", "date": "1974-05-31 03:27:00", "id": "1244", "fill": "green"}, {"name": "&nbsp;", "country": "SOV", "lon": "78.1014", "yield": "20", "lat": "49.8306", "depth": "0", "date": "1974-06-25 03:57:00", "id": "1245", "fill": "green"}, {"name": "&nbsp;", "country": "SOV", "lon": "78.1125", "yield": "20", "lat": "49.7772", "depth": "0", "date": "1974-07-10 02:57:00", "id": "1246", "fill": "green"}, {"name": "&nbsp;", "country": "SOV", "lon": "78.9358", "yield": "20", "lat": "49.9375", "depth": "0", "date": "1974-07-29 03:28:00", "id": "1247", "fill": "green"}, {"name": "&nbsp;", "country": "SOV", "lon": "78.0553", "yield": "20", "lat": "49.7697", "depth": "0", "date": "1974-09-13 03:03:00", "id": "1248", "fill": "green"}, {"name": "&nbsp;", "country": "SOV", "lon": "78.8942", "yield": "20", "lat": "49.9875", "depth": "0", "date": "1974-10-16 06:33:00", "id": "1249", "fill": "green"}, {"name": "NATCHES", "country": "USA", "lon": "-116.036", "yield": "20", "lat": "37.125", "depth": ".059", "date": "1963-08-23 13:30:00", "id": "125", "fill": "green"}, {"name": "&nbsp;", "country": "SOV", "lon": "77.71", "yield": "20", "lat": "49.96", "depth": "0", "date": "1974-11-28 05:57:00", "id": "1250", "fill": "green"}, {"name": "&nbsp;", "country": "SOV", "lon": "78.0817", "yield": "20", "lat": "49.7678", "depth": "0", "date": "1974-12-16 06:23:00", "id": "1251", "fill": "green"}, {"name": "&nbsp;", "country": "SOV", "lon": "78.0267", "yield": "3.8", "lat": "49.8331", "depth": "0", "date": "1974-12-16 06:41:00", "id": "1252", "fill": "green"}, {"name": "&nbsp;", "country": "SOV", "lon": "79.005", "yield": "150", "lat": "49.9672", "depth": "0", "date": "1974-12-27 05:46:59", "id": "1253", "fill": "green"}, {"name": "&nbsp;", "country": "SOV", "lon": "78.0156", "yield": "20", "lat": "49.7775", "depth": "0", "date": "1975-02-20 05:33:00", "id": "1254", "fill": "green"}, {"name": "&nbsp;", "country": "SOV", "lon": "78.0014", "yield": "20", "lat": "49.7989", "depth": "0", "date": "1975-02-20 05:33:00", "id": "1255", "fill": "green"}, {"name": "&nbsp;", "country": "SOV", "lon": "78.1075", "yield": "20", "lat": "49.7547", "depth": "0", "date": "1975-03-11 05:43:00", "id": "1256", "fill": "green"}, {"name": "&nbsp;", "country": "SOV", "lon": "78.9078", "yield": "150", "lat": "49.9392", "depth": "0", "date": "1975-04-27 05:37:00", "id": "1257", "fill": "green"}, {"name": "&nbsp;", "country": "SOV", "lon": "78.0058", "yield": "20", "lat": "49.7517", "depth": "0", "date": "1975-06-08 03:27:00", "id": "1258", "fill": "green"}, {"name": "&nbsp;", "country": "SOV", "lon": "78.8969", "yield": "20", "lat": "49.9856", "depth": "0", "date": "1975-06-30 03:27:00", "id": "1259", "fill": "green"}, {"name": "AHTANUM", "country": "USA", "lon": "-116.082", "yield": "20", "lat": "37.163", "depth": ".226", "date": "1963-09-13 13:53:00", "id": "126", "fill": "green"}, {"name": "&nbsp;", "country": "SOV", "lon": "78.0944", "yield": "20", "lat": "49.7914", "depth": "0", "date": "1975-07-15 02:57:00", "id": "1260", "fill": "green"}, {"name": "&nbsp;", "country": "SOV", "lon": "78.1306", "yield": "20", "lat": "49.8019", "depth": "0", "date": "1975-08-07 03:57:00", "id": "1261", "fill": "green"}, {"name": "&nbsp;", "country": "SOV", "lon": "78.0867", "yield": "20", "lat": "49.7831", "depth": "0", "date": "1975-10-05 04:27:00", "id": "1262", "fill": "green"}, {"name": "&nbsp;", "country": "SOV", "lon": "78.8739", "yield": "150", "lat": "49.9539", "depth": "0", "date": "1975-10-29 04:47:00", "id": "1263", "fill": "green"}, {"name": "&nbsp;", "country": "SOV", "lon": "78.1086", "yield": "20", "lat": "49.8133", "depth": "0", "date": "1975-12-13 04:57:00", "id": "1264", "fill": "green"}, {"name": "&nbsp;", "country": "SOV", "lon": "78.8231", "yield": "150", "lat": "50.0483", "depth": "0", "date": "1975-12-25 05:17:00", "id": "1265", "fill": "green"}, {"name": "&nbsp;", "country": "SOV", "lon": "78.1714", "yield": "20", "lat": "49.81", "depth": "0", "date": "1976-01-15 04:47:00", "id": "1266", "fill": "green"}, {"name": "&nbsp;", "country": "SOV", "lon": "78.0992", "yield": "20", "lat": "49.7556", "depth": "0", "date": "1976-03-17 02:57:00", "id": "1267", "fill": "green"}, {"name": "&nbsp;", "country": "SOV", "lon": "78.0475", "yield": "20", "lat": "49.755", "depth": "0", "date": "1976-04-10 05:03:00", "id": "1268", "fill": "green"}, {"name": "&nbsp;", "country": "SOV", "lon": "78.8308", "yield": "20", "lat": "49.9006", "depth": "0", "date": "1976-04-21 05:03:00", "id": "1269", "fill": "green"}, {"name": "BILBY", "country": "USA", "lon": "-116.023", "yield": "249", "lat": "37.06", "depth": ".714", "date": "1963-09-13 17:00:00", "id": "127", "fill": "green"}, {"name": "&nbsp;", "country": "SOV", "lon": "78.1075", "yield": "20", "lat": "49.7547", "depth": "0", "date": "1976-04-21 04:58:00", "id": "1270", "fill": "green"}, {"name": "&nbsp;", "country": "SOV", "lon": "78.0156", "yield": "20", "lat": "49.7775", "depth": "0", "date": "1976-05-19 02:57:00", "id": "1271", "fill": "green"}, {"name": "&nbsp;", "country": "SOV", "lon": "79.0244", "yield": "20", "lat": "49.9936", "depth": "0", "date": "1976-06-09 03:03:00", "id": "1272", "fill": "green"}, {"name": "&nbsp;", "country": "SOV", "lon": "78.8994", "yield": "150", "lat": "49.9042", "depth": "0", "date": "1976-07-04 02:57:00", "id": "1273", "fill": "green"}, {"name": "&nbsp;", "country": "SOV", "lon": "78.0517", "yield": "20", "lat": "49.7433", "depth": "0", "date": "1976-07-23 02:33:00", "id": "1274", "fill": "green"}, {"name": "&nbsp;", "country": "SOV", "lon": "77.7", "yield": "20", "lat": "49.87", "depth": "0", "date": "1976-08-04 02:57:00", "id": "1275", "fill": "green"}, {"name": "&nbsp;", "country": "SOV", "lon": "77.814", "yield": "22", "lat": "50.438", "depth": "-.03", "date": "1949-08-29 00:00:00", "id": "1276", "fill": "red"}, {"name": "&nbsp;", "country": "SOV", "lon": "77.814", "yield": "38", "lat": "50.438", "depth": "-.03", "date": "1951-09-24 06:19:00", "id": "1277", "fill": "red"}, {"name": "&nbsp;", "country": "SOV", "lon": "77.814", "yield": "42", "lat": "50.438", "depth": "0", "date": "1951-10-18 03:53:00", "id": "1278", "fill": "red"}, {"name": "&nbsp;", "country": "SOV", "lon": "77.814", "yield": "400", "lat": "50.438", "depth": "-.03", "date": "1953-08-12 00:00:00", "id": "1279", "fill": "red"}, {"name": "CARP", "country": "USA", "lon": "-116.017", "yield": "20", "lat": "37.037", "depth": ".33", "date": "1963-09-27 14:20:00", "id": "128", "fill": "green"}, {"name": "&nbsp;", "country": "SOV", "lon": "77.814", "yield": "28", "lat": "50.438", "depth": "0", "date": "1953-08-23 02:00:00", "id": "1280", "fill": "red"}, {"name": "&nbsp;", "country": "SOV", "lon": "77.814", "yield": "5.8", "lat": "50.438", "depth": "0", "date": "1953-09-03 00:00:00", "id": "1281", "fill": "red"}, {"name": "&nbsp;", "country": "SOV", "lon": "77.814", "yield": "1.6", "lat": "50.438", "depth": "0", "date": "1953-09-08 00:00:00", "id": "1282", "fill": "red"}, {"name": "&nbsp;", "country": "SOV", "lon": "77.814", "yield": "4.9", "lat": "50.438", "depth": "0", "date": "1953-09-10 00:00:00", "id": "1283", "fill": "red"}, {"name": "&nbsp;", "country": "SOV", "lon": "77.814", "yield": ".2", "lat": "50.438", "depth": "0", "date": "1954-09-29 00:00:00", "id": "1284", "fill": "red"}, {"name": "&nbsp;", "country": "SOV", "lon": "77.814", "yield": ".03", "lat": "50.438", "depth": "0", "date": "1954-10-01 00:00:00", "id": "1285", "fill": "red"}, {"name": "&nbsp;", "country": "SOV", "lon": "77.814", "yield": "2", "lat": "50.438", "depth": "0", "date": "1954-10-03 00:00:00", "id": "1286", "fill": "red"}, {"name": "&nbsp;", "country": "SOV", "lon": "77.814", "yield": "4", "lat": "50.438", "depth": "0", "date": "1954-10-05 03:00:00", "id": "1287", "fill": "red"}, {"name": "&nbsp;", "country": "SOV", "lon": "77.814", "yield": ".8", "lat": "50.438", "depth": "0", "date": "1954-10-08 00:00:00", "id": "1288", "fill": "red"}, {"name": "&nbsp;", "country": "SOV", "lon": "77.814", "yield": "10", "lat": "50.438", "depth": "-.015", "date": "1954-10-19 00:00:00", "id": "1289", "fill": "red"}, {"name": "NARRAGUAGUS", "country": "USA", "lon": "-116.074", "yield": "20", "lat": "37.155", "depth": ".15", "date": "1963-09-27 17:30:00", "id": "129", "fill": "green"}, {"name": "&nbsp;", "country": "SOV", "lon": "77.814", "yield": "62", "lat": "50.438", "depth": "0", "date": "1954-10-23 00:00:00", "id": "1290", "fill": "red"}, {"name": "&nbsp;", "country": "SOV", "lon": "77.814", "yield": "2.8", "lat": "50.438", "depth": "0", "date": "1954-10-26 00:00:00", "id": "1291", "fill": "red"}, {"name": "&nbsp;", "country": "SOV", "lon": "77.814", "yield": "10", "lat": "50.438", "depth": "-.05", "date": "1954-10-30 04:00:00", "id": "1292", "fill": "red"}, {"name": "&nbsp;", "country": "SOV", "lon": "77.814", "yield": "1.3", "lat": "50.438", "depth": "-.003", "date": "1955-07-29 02:00:00", "id": "1293", "fill": "red"}, {"name": "&nbsp;", "country": "SOV", "lon": "77.814", "yield": "12", "lat": "50.438", "depth": "-.003", "date": "1955-08-02 03:00:00", "id": "1294", "fill": "red"}, {"name": "&nbsp;", "country": "SOV", "lon": "77.814", "yield": "1.2", "lat": "50.438", "depth": "-.002", "date": "1955-08-05 00:00:00", "id": "1295", "fill": "red"}, {"name": "&nbsp;", "country": "SOV", "lon": "77.814", "yield": "250", "lat": "50.438", "depth": "0", "date": "1955-11-06 04:50:00", "id": "1296", "fill": "red"}, {"name": "&nbsp;", "country": "SOV", "lon": "77.814", "yield": "1600", "lat": "50.438", "depth": "0", "date": "1955-11-22 00:00:00", "id": "1297", "fill": "red"}, {"name": "&nbsp;", "country": "SOV", "lon": "77.814", "yield": "14", "lat": "50.438", "depth": "0", "date": "1956-03-16 05:00:00", "id": "1298", "fill": "red"}, {"name": "&nbsp;", "country": "SOV", "lon": "77.814", "yield": "5.5", "lat": "50.438", "depth": "-.001", "date": "1956-03-25 00:00:00", "id": "1299", "fill": "red"}, {"name": "UMBRELLA", "country": "USA", "lon": "162.218", "yield": "8", "lat": "11.38", "depth": ".045", "date": "1958-06-08 23:15:00", "id": "13"}, {"name": "GRUNION", "country": "USA", "lon": "-116.022", "yield": "20", "lat": "37.037", "depth": ".261", "date": "1963-10-11 14:00:00", "id": "130", "fill": "green"}, {"name": "&nbsp;", "country": "SOV", "lon": "77.814", "yield": "27", "lat": "50.438", "depth": "-.1", "date": "1956-08-24 00:15:00", "id": "1300", "fill": "red"}, {"name": "&nbsp;", "country": "SOV", "lon": "77.814", "yield": "900", "lat": "50.438", "depth": "0", "date": "1956-08-30 00:00:00", "id": "1301", "fill": "red"}, {"name": "&nbsp;", "country": "SOV", "lon": "77.814", "yield": "51", "lat": "50.438", "depth": "0", "date": "1956-09-02 00:00:00", "id": "1302", "fill": "red"}, {"name": "&nbsp;", "country": "SOV", "lon": "77.814", "yield": "38", "lat": "50.438", "depth": "0", "date": "1956-09-10 00:00:00", "id": "1303", "fill": "red"}, {"name": "&nbsp;", "country": "SOV", "lon": "77.814", "yield": "900", "lat": "50.438", "depth": "0", "date": "1956-11-17 00:00:00", "id": "1304", "fill": "red"}, {"name": "&nbsp;", "country": "SOV", "lon": "77.814", "yield": "40", "lat": "50.438", "depth": "0", "date": "1956-12-14 00:00:00", "id": "1305", "fill": "red"}, {"name": "&nbsp;", "country": "SOV", "lon": "77.814", "yield": "19", "lat": "50.438", "depth": "0", "date": "1957-03-08 00:00:00", "id": "1306", "fill": "red"}, {"name": "&nbsp;", "country": "SOV", "lon": "77.814", "yield": "42", "lat": "50.438", "depth": "0", "date": "1957-04-03 00:00:00", "id": "1307", "fill": "red"}, {"name": "&nbsp;", "country": "SOV", "lon": "77.814", "yield": "57", "lat": "50.438", "depth": "0", "date": "1957-04-06 00:00:00", "id": "1308", "fill": "red"}, {"name": "&nbsp;", "country": "SOV", "lon": "77.814", "yield": "680", "lat": "50.438", "depth": "0", "date": "1957-04-10 00:00:00", "id": "1309", "fill": "red"}, {"name": "TORNILLO", "country": "USA", "lon": "-116.035", "yield": ".38", "lat": "37.119", "depth": ".149", "date": "1963-10-11 21:00:00", "id": "131", "fill": "green"}, {"name": "&nbsp;", "country": "SOV", "lon": "77.814", "yield": "22", "lat": "50.438", "depth": "0", "date": "1957-04-12 00:00:00", "id": "1310", "fill": "red"}, {"name": "&nbsp;", "country": "SOV", "lon": "77.814", "yield": "320", "lat": "50.438", "depth": "0", "date": "1957-04-16 00:00:00", "id": "1311", "fill": "red"}, {"name": "&nbsp;", "country": "SOV", "lon": "77.814", "yield": "520", "lat": "50.438", "depth": "0", "date": "1957-08-22 06:30:00", "id": "1312", "fill": "red"}, {"name": "&nbsp;", "country": "SOV", "lon": "77.814", "yield": ".1", "lat": "50.438", "depth": "0", "date": "1957-08-26 00:00:00", "id": "1313", "fill": "red"}, {"name": "&nbsp;", "country": "SOV", "lon": "77.814", "yield": "5.9", "lat": "50.438", "depth": "0", "date": "1957-09-13 00:00:00", "id": "1314", "fill": "red"}, {"name": "&nbsp;", "country": "SOV", "lon": "77.814", "yield": "13", "lat": "50.438", "depth": "0", "date": "1957-09-26 05:00:00", "id": "1315", "fill": "red"}, {"name": "&nbsp;", "country": "SOV", "lon": "77.814", "yield": "12", "lat": "50.438", "depth": "0", "date": "1957-12-28 00:00:00", "id": "1316", "fill": "red"}, {"name": "&nbsp;", "country": "SOV", "lon": "77.814", "yield": "1.3", "lat": "50.438", "depth": "0", "date": "1958-01-04 00:00:00", "id": "1317", "fill": "red"}, {"name": "&nbsp;", "country": "SOV", "lon": "77.814", "yield": ".5", "lat": "50.438", "depth": "0", "date": "1958-01-17 00:00:00", "id": "1318", "fill": "red"}, {"name": "&nbsp;", "country": "SOV", "lon": "77.814", "yield": "1.2", "lat": "50.438", "depth": "0", "date": "1958-03-13 00:00:00", "id": "1319", "fill": "red"}, {"name": "CLEARWATER", "country": "USA", "lon": "-116.23", "yield": "200", "lat": "37.198", "depth": ".545", "date": "1963-10-16 17:00:00", "id": "132", "fill": "green"}, {"name": "&nbsp;", "country": "SOV", "lon": "77.814", "yield": "35", "lat": "50.438", "depth": "0", "date": "1958-03-14 00:00:00", "id": "1320", "fill": "red"}, {"name": "&nbsp;", "country": "SOV", "lon": "77.814", "yield": "14", "lat": "50.438", "depth": "0", "date": "1958-03-15 00:00:00", "id": "1321", "fill": "red"}, {"name": "&nbsp;", "country": "SOV", "lon": "77.814", "yield": ".16", "lat": "50.438", "depth": "0", "date": "1958-03-18 00:00:00", "id": "1322", "fill": "red"}, {"name": "&nbsp;", "country": "SOV", "lon": "77.814", "yield": "12", "lat": "50.438", "depth": "0", "date": "1958-03-20 00:00:00", "id": "1323", "fill": "red"}, {"name": "&nbsp;", "country": "SOV", "lon": "77.814", "yield": "18", "lat": "50.438", "depth": "0", "date": "1958-03-22 00:00:00", "id": "1324", "fill": "red"}, {"name": "&nbsp;", "country": "SOV", "lon": "77.814", "yield": "16", "lat": "50.438", "depth": "0", "date": "1961-09-01 00:00:00", "id": "1325", "fill": "red"}, {"name": "&nbsp;", "country": "SOV", "lon": "77.814", "yield": "9", "lat": "50.438", "depth": "0", "date": "1961-09-04 05:00:27", "id": "1326", "fill": "red"}, {"name": "&nbsp;", "country": "SOV", "lon": "77.814", "yield": "16", "lat": "50.438", "depth": "0", "date": "1961-09-05 06:00:05", "id": "1327", "fill": "red"}, {"name": "&nbsp;", "country": "SOV", "lon": "77.814", "yield": "1.1", "lat": "50.438", "depth": "0", "date": "1961-09-06 00:00:00", "id": "1328", "fill": "red"}, {"name": "&nbsp;", "country": "SOV", "lon": "77.814", "yield": ".38", "lat": "50.438", "depth": "0", "date": "1961-09-09 00:00:00", "id": "1329", "fill": "red"}, {"name": "MULLETT", "country": "USA", "lon": "-116.068", "yield": "20", "lat": "37.131", "depth": ".06", "date": "1963-10-17 15:00:00", "id": "133", "fill": "green"}, {"name": "&nbsp;", "country": "SOV", "lon": "77.814", "yield": ".88", "lat": "50.438", "depth": "0", "date": "1961-09-10 00:00:00", "id": "1330", "fill": "red"}, {"name": "&nbsp;", "country": "SOV", "lon": "77.814", "yield": ".3", "lat": "50.438", "depth": "0", "date": "1961-09-11 00:00:00", "id": "1331", "fill": "red"}, {"name": "&nbsp;", "country": "SOV", "lon": "77.814", "yield": "20", "lat": "50.438", "depth": "0", "date": "1961-09-13 05:01:56", "id": "1332", "fill": "red"}, {"name": "&nbsp;", "country": "SOV", "lon": "77.814", "yield": ".4", "lat": "50.438", "depth": "0", "date": "1961-09-14 05:59:59", "id": "1333", "fill": "red"}, {"name": "&nbsp;", "country": "SOV", "lon": "77.814", "yield": "150", "lat": "50.438", "depth": "0", "date": "1961-09-17 07:00:47", "id": "1334", "fill": "red"}, {"name": "&nbsp;", "country": "SOV", "lon": "77.814", "yield": ".004", "lat": "50.438", "depth": "-.001", "date": "1961-09-18 00:00:00", "id": "1335", "fill": "red"}, {"name": "&nbsp;", "country": "SOV", "lon": "77.814", "yield": ".75", "lat": "50.438", "depth": "0", "date": "1961-09-18 00:00:00", "id": "1336", "fill": "red"}, {"name": "&nbsp;", "country": "SOV", "lon": "77.814", "yield": ".03", "lat": "50.438", "depth": "0", "date": "1961-09-19 00:00:00", "id": "1337", "fill": "red"}, {"name": "&nbsp;", "country": "SOV", "lon": "77.814", "yield": "4.8", "lat": "50.438", "depth": "0", "date": "1961-09-20 00:00:00", "id": "1338", "fill": "red"}, {"name": "&nbsp;", "country": "SOV", "lon": "77.814", "yield": ".8", "lat": "50.438", "depth": "0", "date": "1961-09-21 14:01:02", "id": "1339", "fill": "red"}, {"name": "SHOAL", "country": "USA", "lon": "-118.381", "yield": "12", "lat": "39.2", "depth": ".367", "date": "1963-10-26 17:00:00", "id": "134", "fill": "green"}, {"name": "&nbsp;", "country": "SOV", "lon": "77.814", "yield": "1.2", "lat": "50.438", "depth": "0", "date": "1961-09-26 07:01:20", "id": "1340", "fill": "red"}, {"name": "&nbsp;", "country": "SOV", "lon": "77.814", "yield": "3", "lat": "50.438", "depth": "0", "date": "1961-10-01 00:00:00", "id": "1341", "fill": "red"}, {"name": "&nbsp;", "country": "SOV", "lon": "77.814", "yield": "13", "lat": "50.438", "depth": "0", "date": "1961-10-04 07:01:20", "id": "1342", "fill": "red"}, {"name": "&nbsp;", "country": "SOV", "lon": "77.9886", "yield": "1", "lat": "49.7739", "depth": ".116", "date": "1961-10-11 07:40:00", "id": "1343", "fill": "green"}, {"name": "&nbsp;", "country": "SOV", "lon": "77.814", "yield": "15", "lat": "50.438", "depth": "0", "date": "1961-10-12 05:31:04", "id": "1344", "fill": "red"}, {"name": "&nbsp;", "country": "SOV", "lon": "77.814", "yield": "6.6", "lat": "50.438", "depth": "0", "date": "1961-10-17 07:00:01", "id": "1345", "fill": "red"}, {"name": "&nbsp;", "country": "SOV", "lon": "77.814", "yield": "20", "lat": "50.438", "depth": "0", "date": "1961-10-19 05:30:43", "id": "1346", "fill": "red"}, {"name": "&nbsp;", "country": "SOV", "lon": "77.814", "yield": ".5", "lat": "50.438", "depth": "0", "date": "1961-10-25 00:00:00", "id": "1347", "fill": "red"}, {"name": "&nbsp;", "country": "SOV", "lon": "77.814", "yield": ".09", "lat": "50.438", "depth": "0", "date": "1961-10-30 00:00:00", "id": "1348", "fill": "red"}, {"name": "&nbsp;", "country": "SOV", "lon": "77.814", "yield": "2.7", "lat": "50.438", "depth": "0", "date": "1961-11-01 00:00:00", "id": "1349", "fill": "red"}, {"name": "ANCHOVY", "country": "USA", "lon": "-116.019", "yield": "20", "lat": "37.039", "depth": ".26", "date": "1963-11-14 16:00:00", "id": "135", "fill": "green"}, {"name": "&nbsp;", "country": "SOV", "lon": "77.814", "yield": ".6", "lat": "50.438", "depth": "0", "date": "1961-11-02 00:00:00", "id": "1350", "fill": "red"}, {"name": "&nbsp;", "country": "SOV", "lon": "77.814", "yield": "10", "lat": "50.438", "depth": "0", "date": "1961-11-03 00:00:00", "id": "1351", "fill": "red"}, {"name": "&nbsp;", "country": "SOV", "lon": "77.814", "yield": ".9", "lat": "50.438", "depth": "0", "date": "1961-11-03 00:00:00", "id": "1352", "fill": "red"}, {"name": "&nbsp;", "country": "SOV", "lon": "77.814", "yield": ".2", "lat": "50.438", "depth": "0", "date": "1961-11-04 00:00:00", "id": "1353", "fill": "red"}, {"name": "&nbsp;", "country": "SOV", "lon": "77.9969", "yield": "20", "lat": "49.785", "depth": ".238", "date": "1962-02-02 08:00:00", "id": "1354", "fill": "green"}, {"name": "&nbsp;", "country": "SOV", "lon": "77.814", "yield": "2.4", "lat": "50.438", "depth": "0", "date": "1962-08-01 00:00:00", "id": "1355", "fill": "red"}, {"name": "&nbsp;", "country": "SOV", "lon": "77.814", "yield": "1.6", "lat": "50.438", "depth": "0", "date": "1962-08-03 00:00:00", "id": "1356", "fill": "red"}, {"name": "&nbsp;", "country": "SOV", "lon": "77.814", "yield": "3.8", "lat": "50.438", "depth": "0", "date": "1962-08-04 00:00:00", "id": "1357", "fill": "red"}, {"name": "&nbsp;", "country": "SOV", "lon": "77.814", "yield": "9.9", "lat": "50.438", "depth": "0", "date": "1962-08-07 03:00:00", "id": "1358", "fill": "red"}, {"name": "&nbsp;", "country": "SOV", "lon": "77.814", "yield": "7.4", "lat": "50.438", "depth": "0", "date": "1962-08-18 00:00:00", "id": "1359", "fill": "red"}, {"name": "MUSTANG", "country": "USA", "lon": "-116.048", "yield": "20", "lat": "37.132", "depth": ".166", "date": "1963-11-15 15:00:00", "id": "136", "fill": "green"}, {"name": "&nbsp;", "country": "SOV", "lon": "77.814", "yield": "5.8", "lat": "50.438", "depth": "0", "date": "1962-08-18 00:00:00", "id": "1360", "fill": "red"}, {"name": "&nbsp;", "country": "SOV", "lon": "77.814", "yield": "150", "lat": "50.438", "depth": "0", "date": "1962-08-21 00:00:00", "id": "1361", "fill": "red"}, {"name": "&nbsp;", "country": "SOV", "lon": "77.814", "yield": "3", "lat": "50.438", "depth": "0", "date": "1962-08-22 00:00:00", "id": "1362", "fill": "red"}, {"name": "&nbsp;", "country": "SOV", "lon": "77.814", "yield": "2.5", "lat": "50.438", "depth": "0", "date": "1962-08-23 00:00:00", "id": "1363", "fill": "red"}, {"name": "&nbsp;", "country": "SOV", "lon": "77.814", "yield": "20", "lat": "50.438", "depth": "0", "date": "1962-08-25 05:40:00", "id": "1364", "fill": "red"}, {"name": "&nbsp;", "country": "SOV", "lon": "77.814", "yield": "11", "lat": "50.438", "depth": "0", "date": "1962-08-27 00:00:00", "id": "1365", "fill": "red"}, {"name": "&nbsp;", "country": "SOV", "lon": "77.814", "yield": "2.7", "lat": "50.438", "depth": "0", "date": "1962-08-31 00:00:00", "id": "1366", "fill": "red"}, {"name": "&nbsp;", "country": "SOV", "lon": "77.814", "yield": ".21", "lat": "50.438", "depth": "0", "date": "1962-09-22 00:00:00", "id": "1367", "fill": "red"}, {"name": "&nbsp;", "country": "SOV", "lon": "77.814", "yield": "1.2", "lat": "50.438", "depth": "0", "date": "1962-09-24 00:00:00", "id": "1368", "fill": "red"}, {"name": "&nbsp;", "country": "SOV", "lon": "77.814", "yield": "7", "lat": "50.438", "depth": "0", "date": "1962-09-25 00:00:00", "id": "1369", "fill": "red"}, {"name": "GREYS", "country": "USA", "lon": "-116.046", "yield": "200", "lat": "37.119", "depth": ".301", "date": "1963-11-22 17:30:00", "id": "137", "fill": "green"}, {"name": "&nbsp;", "country": "SOV", "lon": "77.814", "yield": "1.3", "lat": "50.438", "depth": "0", "date": "1962-09-28 00:00:00", "id": "1370", "fill": "red"}, {"name": "&nbsp;", "country": "SOV", "lon": "77.814", "yield": "8", "lat": "50.438", "depth": "0", "date": "1962-10-09 00:00:00", "id": "1371", "fill": "red"}, {"name": "&nbsp;", "country": "SOV", "lon": "77.814", "yield": "9.2", "lat": "50.438", "depth": "0", "date": "1962-10-10 00:00:00", "id": "1372", "fill": "red"}, {"name": "&nbsp;", "country": "SOV", "lon": "77.814", "yield": "4.9", "lat": "50.438", "depth": "0", "date": "1962-10-13 00:00:00", "id": "1373", "fill": "red"}, {"name": "&nbsp;", "country": "SOV", "lon": "77.814", "yield": "20", "lat": "50.438", "depth": "0", "date": "1962-10-14 00:00:00", "id": "1374", "fill": "red"}, {"name": "&nbsp;", "country": "SOV", "lon": "77.814", "yield": "6.7", "lat": "50.438", "depth": "0", "date": "1962-10-20 00:00:00", "id": "1375", "fill": "red"}, {"name": "&nbsp;", "country": "SOV", "lon": "77.814", "yield": "7.8", "lat": "50.438", "depth": "0", "date": "1962-10-28 00:00:00", "id": "1376", "fill": "red"}, {"name": "&nbsp;", "country": "SOV", "lon": "77.814", "yield": "7.8", "lat": "50.438", "depth": "0", "date": "1962-10-28 00:00:00", "id": "1377", "fill": "red"}, {"name": "&nbsp;", "country": "SOV", "lon": "77.814", "yield": "1.2", "lat": "50.438", "depth": "0", "date": "1962-10-30 00:00:00", "id": "1378", "fill": "red"}, {"name": "&nbsp;", "country": "SOV", "lon": "77.814", "yield": "10", "lat": "50.438", "depth": "0", "date": "1962-10-31 00:00:00", "id": "1379", "fill": "red"}, {"name": "BARRACUDA", "country": "USA", "lon": "-116.03", "yield": "20", "lat": "37.04", "depth": ".263", "date": "1963-12-04 16:38:30", "id": "138", "fill": "green"}, {"name": "&nbsp;", "country": "SOV", "lon": "77.814", "yield": "3", "lat": "50.438", "depth": "0", "date": "1962-11-01 09:20:00", "id": "1380", "fill": "red"}, {"name": "&nbsp;", "country": "SOV", "lon": "77.814", "yield": "4.7", "lat": "50.438", "depth": "0", "date": "1962-11-03 00:00:00", "id": "1381", "fill": "red"}, {"name": "&nbsp;", "country": "SOV", "lon": "77.814", "yield": "8.4", "lat": "50.438", "depth": "0", "date": "1962-11-04 00:00:00", "id": "1382", "fill": "red"}, {"name": "&nbsp;", "country": "SOV", "lon": "77.814", "yield": ".4", "lat": "50.438", "depth": "-.015", "date": "1962-11-05 00:00:00", "id": "1383", "fill": "red"}, {"name": "&nbsp;", "country": "SOV", "lon": "77.814", "yield": ".1", "lat": "50.438", "depth": "-.008", "date": "1962-11-11 00:00:00", "id": "1384", "fill": "red"}, {"name": "&nbsp;", "country": "SOV", "lon": "77.814", "yield": "10", "lat": "50.438", "depth": "0", "date": "1962-11-13 00:00:00", "id": "1385", "fill": "red"}, {"name": "&nbsp;", "country": "SOV", "lon": "77.814", "yield": "12", "lat": "50.438", "depth": "0", "date": "1962-11-14 00:00:00", "id": "1386", "fill": "red"}, {"name": "&nbsp;", "country": "SOV", "lon": "77.814", "yield": "18", "lat": "50.438", "depth": "0", "date": "1962-11-17 00:00:00", "id": "1387", "fill": "red"}, {"name": "&nbsp;", "country": "SOV", "lon": "77.814", "yield": "10", "lat": "50.438", "depth": "0", "date": "1962-11-24 00:00:00", "id": "1388", "fill": "red"}, {"name": "&nbsp;", "country": "SOV", "lon": "77.814", "yield": ".031", "lat": "50.438", "depth": "0", "date": "1962-11-26 00:00:00", "id": "1389", "fill": "red"}, {"name": "SARDINE", "country": "USA", "lon": "-116.013", "yield": "20", "lat": "37.044", "depth": ".262", "date": "1963-12-04 16:38:30", "id": "139", "fill": "green"}, {"name": "&nbsp;", "country": "SOV", "lon": "77.814", "yield": "2.4", "lat": "50.438", "depth": "0", "date": "1962-12-01 00:00:00", "id": "1390", "fill": "red"}, {"name": "&nbsp;", "country": "SOV", "lon": "77.814", "yield": "10", "lat": "50.438", "depth": "0", "date": "1962-12-23 00:00:00", "id": "1391", "fill": "red"}, {"name": "&nbsp;", "country": "SOV", "lon": "77.814", "yield": ".007", "lat": "50.438", "depth": "0", "date": "1962-12-24 00:00:00", "id": "1392", "fill": "red"}, {"name": "&nbsp;", "country": "SOV", "lon": "77.814", "yield": ".028", "lat": "50.438", "depth": "0", "date": "1962-12-24 00:00:00", "id": "1393", "fill": "red"}, {"name": "&nbsp;", "country": "SOV", "lon": "78.0986", "yield": "150", "lat": "49.8208", "depth": ".22", "date": "1964-03-15 08:00:00", "id": "1394", "fill": "green"}, {"name": "&nbsp;", "country": "SOV", "lon": "78.0939", "yield": "150", "lat": "49.8178", "depth": ".253", "date": "1964-05-16 06:01:00", "id": "1395", "fill": "green"}, {"name": "&nbsp;", "country": "SOV", "lon": "77.9881", "yield": "20", "lat": "49.7747", "depth": "0", "date": "1964-06-06 00:00:00", "id": "1396", "fill": "green"}, {"name": "&nbsp;", "country": "SOV", "lon": "78.0931", "yield": "150", "lat": "49.815", "depth": "1.68", "date": "1964-07-19 06:00:01", "id": "1397", "fill": "green"}, {"name": "&nbsp;", "country": "SOV", "lon": "78.0819", "yield": "20", "lat": "49.8206", "depth": "0", "date": "1964-08-18 06:00:00", "id": "1398", "fill": "green"}, {"name": "&nbsp;", "country": "SOV", "lon": "78.0986", "yield": "20", "lat": "49.8208", "depth": "0", "date": "1964-09-30 00:00:00", "id": "1399", "fill": "green"}, {"name": "OTERO", "country": "USA", "lon": "-116.033", "yield": ".038", "lat": "37.05", "depth": ".146", "date": "1958-09-12 20:00:00", "id": "14", "fill": "green"}, {"name": "EAGLE", "country": "USA", "lon": "-116.045", "yield": "5.3", "lat": "37.131", "depth": ".165", "date": "1963-12-12 16:02:00", "id": "140", "fill": "green"}, {"name": "&nbsp;", "country": "SOV", "lon": "78.1336", "yield": "150", "lat": "49.8139", "depth": ".194", "date": "1964-11-16 06:00:00", "id": "1400", "fill": "green"}, {"name": "&nbsp;", "country": "SOV", "lon": "77.9914", "yield": "20", "lat": "49.7731", "depth": "0", "date": "1965-02-04 06:00:00", "id": "1401", "fill": "green"}, {"name": "&nbsp;", "country": "SOV", "lon": "78.0575", "yield": "20", "lat": "49.8297", "depth": ".196", "date": "1965-03-03 06:14:59", "id": "1402", "fill": "green"}, {"name": "&nbsp;", "country": "SOV", "lon": "77.9881", "yield": "20", "lat": "49.7747", "depth": "0", "date": "1965-03-27 06:30:00", "id": "1403", "fill": "green"}, {"name": "&nbsp;", "country": "SOV", "lon": "77.9914", "yield": "20", "lat": "49.7731", "depth": ".103", "date": "1965-05-11 06:40:00", "id": "1404", "fill": "green"}, {"name": "&nbsp;", "country": "SOV", "lon": "78.0578", "yield": "20", "lat": "49.8306", "depth": ".152", "date": "1965-06-17 03:45:00", "id": "1405", "fill": "green"}, {"name": "&nbsp;", "country": "SOV", "lon": "77.9969", "yield": "20", "lat": "49.785", "depth": ".126", "date": "1965-07-29 03:05:00", "id": "1406", "fill": "green"}, {"name": "&nbsp;", "country": "SOV", "lon": "78.1425", "yield": "20", "lat": "49.8172", "depth": ".156", "date": "1965-09-17 04:00:00", "id": "1407", "fill": "green"}, {"name": "&nbsp;", "country": "SOV", "lon": "78.1014", "yield": "20", "lat": "49.8306", "depth": ".204", "date": "1965-10-08 06:00:00", "id": "1408", "fill": "green"}, {"name": "&nbsp;", "country": "SOV", "lon": "78.0597", "yield": "29", "lat": "49.8283", "depth": ".278", "date": "1965-11-21 04:58:00", "id": "1409", "fill": "green"}, {"name": "TUNA", "country": "USA", "lon": "-116.034", "yield": "20", "lat": "37.053", "depth": ".414", "date": "1963-12-20 15:24:00", "id": "141", "fill": "green"}, {"name": "&nbsp;", "country": "SOV", "lon": "78.1075", "yield": "20", "lat": "49.8117", "depth": ".213", "date": "1965-12-24 05:00:00", "id": "1410", "fill": "green"}, {"name": "&nbsp;", "country": "SOV", "lon": "78.1308", "yield": "125", "lat": "49.8142", "depth": ".297", "date": "1966-02-13 04:58:00", "id": "1411", "fill": "green"}, {"name": "&nbsp;", "country": "SOV", "lon": "78.0083", "yield": "100", "lat": "49.7517", "depth": ".294", "date": "1966-03-20 05:50:00", "id": "1412", "fill": "green"}, {"name": "&nbsp;", "country": "SOV", "lon": "78.0939", "yield": "20", "lat": "49.8178", "depth": ".178", "date": "1966-04-21 03:58:00", "id": "1413", "fill": "green"}, {"name": "&nbsp;", "country": "SOV", "lon": "78.1072", "yield": "4", "lat": "49.7361", "depth": ".274", "date": "1966-05-07 03:58:00", "id": "1414", "fill": "green"}, {"name": "&nbsp;", "country": "SOV", "lon": "78.0708", "yield": "150", "lat": "49.8392", "depth": ".187", "date": "1966-06-29 06:58:01", "id": "1415", "fill": "green"}, {"name": "&nbsp;", "country": "SOV", "lon": "78.1047", "yield": "150", "lat": "49.7356", "depth": ".17", "date": "1966-07-21 03:58:00", "id": "1416", "fill": "green"}, {"name": "&nbsp;", "country": "SOV", "lon": "78.0486", "yield": "20", "lat": "49.7589", "depth": ".171", "date": "1966-08-05 03:58:00", "id": "1417", "fill": "green"}, {"name": "&nbsp;", "country": "SOV", "lon": "78.1014", "yield": "20", "lat": "49.8306", "depth": ".134", "date": "1966-08-19 03:53:00", "id": "1418", "fill": "green"}, {"name": "&nbsp;", "country": "SOV", "lon": "78.0578", "yield": "20", "lat": "49.8306", "depth": ".117", "date": "1966-09-07 03:52:00", "id": "1419", "fill": "green"}, {"name": "FORE", "country": "USA", "lon": "-116.05", "yield": "200", "lat": "37.142", "depth": ".491", "date": "1964-01-16 16:00:00", "id": "142", "fill": "green"}, {"name": "&nbsp;", "country": "SOV", "lon": "78.0256", "yield": "150", "lat": "49.7419", "depth": ".185", "date": "1966-10-19 03:58:00", "id": "1420", "fill": "green"}, {"name": "&nbsp;", "country": "SOV", "lon": "77.9994", "yield": "20", "lat": "49.7847", "depth": "0", "date": "1966-10-29 03:58:00", "id": "1421", "fill": "green"}, {"name": "&nbsp;", "country": "SOV", "lon": "78.0575", "yield": "20", "lat": "49.8297", "depth": "0", "date": "1966-11-19 03:58:00", "id": "1422", "fill": "green"}, {"name": "&nbsp;", "country": "SOV", "lon": "78.0308", "yield": "20", "lat": "49.7403", "depth": ".153", "date": "1966-12-03 05:02:00", "id": "1423", "fill": "green"}, {"name": "&nbsp;", "country": "SOV", "lon": "77.7472", "yield": "150", "lat": "49.9246", "depth": ".427", "date": "1966-12-18 04:58:00", "id": "1424", "fill": "green"}, {"name": "&nbsp;", "country": "SOV", "lon": "77.99", "yield": "20", "lat": "49.7731", "depth": ".131", "date": "1967-01-30 04:02:00", "id": "1425", "fill": "green"}, {"name": "&nbsp;", "country": "SOV", "lon": "78.0864", "yield": "150", "lat": "49.7394", "depth": ".241", "date": "1967-02-26 03:58:00", "id": "1426", "fill": "green"}, {"name": "&nbsp;", "country": "SOV", "lon": "78.0536", "yield": "20", "lat": "49.7533", "depth": ".152", "date": "1967-03-25 05:58:01", "id": "1427", "fill": "green"}, {"name": "&nbsp;", "country": "SOV", "lon": "78.1072", "yield": "150", "lat": "49.7361", "depth": ".225", "date": "1967-04-20 04:08:00", "id": "1428", "fill": "green"}, {"name": "&nbsp;", "country": "SOV", "lon": "78.0083", "yield": "20", "lat": "49.7517", "depth": ".262", "date": "1967-05-28 04:08:00", "id": "1429", "fill": "green"}, {"name": "OCONTO", "country": "USA", "lon": "-116.037", "yield": "10.5", "lat": "37.126", "depth": ".265", "date": "1964-01-23 16:00:00", "id": "143", "fill": "green"}, {"name": "&nbsp;", "country": "SOV", "lon": "78.0364", "yield": "20", "lat": "49.7797", "depth": "0", "date": "1980-05-22 03:57:00", "id": "1430", "fill": "green"}, {"name": "&nbsp;", "country": "SOV", "lon": "78.9908", "yield": "150", "lat": "49.9892", "depth": "0", "date": "1980-06-12 03:27:00", "id": "1431", "fill": "green"}, {"name": "&nbsp;", "country": "SOV", "lon": "78.0994", "yield": "20", "lat": "49.8258", "depth": "0", "date": "1980-06-25 02:27:00", "id": "1432", "fill": "green"}, {"name": "&nbsp;", "country": "SOV", "lon": "78.8181", "yield": "150", "lat": "49.9486", "depth": "0", "date": "1980-06-29 02:33:00", "id": "1433", "fill": "green"}, {"name": "&nbsp;", "country": "SOV", "lon": "78.0908", "yield": "20", "lat": "49.7906", "depth": "0", "date": "1980-07-31 03:33:00", "id": "1434", "fill": "green"}, {"name": "&nbsp;", "country": "SOV", "lon": "78.7975", "yield": "150", "lat": "49.9367", "depth": "0", "date": "1980-09-14 02:42:42", "id": "1435", "fill": "green"}, {"name": "&nbsp;", "country": "SOV", "lon": "78.0806", "yield": "20", "lat": "49.7833", "depth": "0", "date": "1980-09-25 06:21:13", "id": "1436", "fill": "green"}, {"name": "&nbsp;", "country": "SOV", "lon": "79.0219", "yield": "150", "lat": "49.9683", "depth": "0", "date": "1980-10-12 03:34:17", "id": "1437", "fill": "green"}, {"name": "&nbsp;", "country": "SOV", "lon": "78.1317", "yield": "20", "lat": "49.7517", "depth": "0", "date": "1980-10-23 03:57:11", "id": "1438", "fill": "green"}, {"name": "&nbsp;", "country": "SOV", "lon": "78.1317", "yield": "20", "lat": "49.7517", "depth": "0", "date": "1980-12-05 04:17:00", "id": "1439", "fill": "green"}, {"name": "CLUB", "country": "USA", "lon": "-116.072", "yield": "20", "lat": "37.136", "depth": ".18", "date": "1964-01-30 16:00:00", "id": "144", "fill": "green"}, {"name": "&nbsp;", "country": "SOV", "lon": "78.1139", "yield": "20", "lat": "49.8308", "depth": "0", "date": "1980-12-05 04:17:00", "id": "1440", "fill": "green"}, {"name": "&nbsp;", "country": "SOV", "lon": "78.9186", "yield": "150", "lat": "49.9089", "depth": "0", "date": "1980-12-14 03:47:09", "id": "1441", "fill": "green"}, {"name": "&nbsp;", "country": "SOV", "lon": "78.0919", "yield": "20", "lat": "49.8261", "depth": "0", "date": "1980-12-26 04:07:09", "id": "1442", "fill": "green"}, {"name": "&nbsp;", "country": "SOV", "lon": "78.9775", "yield": "150", "lat": "50.0678", "depth": "0", "date": "1980-12-27 04:09:11", "id": "1443", "fill": "green"}, {"name": "&nbsp;", "country": "SOV", "lon": "78.0417", "yield": "10", "lat": "49.8233", "depth": "0", "date": "1981-03-25 00:00:00", "id": "1444", "fill": "green"}, {"name": "&nbsp;", "country": "SOV", "lon": "78.9808", "yield": "20", "lat": "50.0217", "depth": "0", "date": "1981-03-29 04:03:53", "id": "1445", "fill": "green"}, {"name": "&nbsp;", "country": "SOV", "lon": "78.8067", "yield": "150", "lat": "49.8994", "depth": "0", "date": "1981-04-22 01:17:14", "id": "1446", "fill": "green"}, {"name": "&nbsp;", "country": "SOV", "lon": "78.9694", "yield": "20", "lat": "49.9878", "depth": "0", "date": "1981-05-27 03:58:15", "id": "1447", "fill": "green"}, {"name": "&nbsp;", "country": "SOV", "lon": "78.0417", "yield": "10", "lat": "49.8233", "depth": "0", "date": "1981-06-04 00:00:00", "id": "1448", "fill": "green"}, {"name": "&nbsp;", "country": "SOV", "lon": "78.0808", "yield": "20", "lat": "49.7675", "depth": "0", "date": "1981-06-30 01:57:15", "id": "1449", "fill": "green"}, {"name": "SOLENDON", "country": "USA", "lon": "-116.03", "yield": "20", "lat": "37.057", "depth": ".15", "date": "1964-02-12 15:38:00", "id": "145", "fill": "green"}, {"name": "&nbsp;", "country": "SOV", "lon": "78.1314", "yield": "20", "lat": "49.8014", "depth": "0", "date": "1981-07-17 02:37:18", "id": "1450", "fill": "green"}, {"name": "&nbsp;", "country": "SOV", "lon": "78.0531", "yield": "20", "lat": "49.7522", "depth": "0", "date": "1981-08-14 02:27:15", "id": "1451", "fill": "green"}, {"name": "&nbsp;", "country": "SOV", "lon": "78.8944", "yield": "150", "lat": "49.9133", "depth": "0", "date": "1981-09-13 02:17:21", "id": "1452", "fill": "green"}, {"name": "&nbsp;", "country": "SOV", "lon": "78.0803", "yield": "10", "lat": "49.8342", "depth": "0", "date": "1981-10-16 00:00:00", "id": "1453", "fill": "green"}, {"name": "&nbsp;", "country": "SOV", "lon": "78.8447", "yield": "150", "lat": "49.9281", "depth": "0", "date": "1981-10-18 03:57:05", "id": "1454", "fill": "green"}, {"name": "&nbsp;", "country": "SOV", "lon": "78.1042", "yield": "20", "lat": "49.7367", "depth": "0", "date": "1981-11-20 04:57:05", "id": "1455", "fill": "green"}, {"name": "&nbsp;", "country": "SOV", "lon": "78.8469", "yield": "20", "lat": "49.9022", "depth": "0", "date": "1981-11-29 03:35:11", "id": "1456", "fill": "green"}, {"name": "&nbsp;", "country": "SOV", "lon": "78.0803", "yield": "20", "lat": "49.8342", "depth": "0", "date": "1981-12-22 04:31:05", "id": "1457", "fill": "green"}, {"name": "&nbsp;", "country": "SOV", "lon": "78.7783", "yield": "150", "lat": "49.9331", "depth": "0", "date": "1981-12-27 03:43:17", "id": "1458", "fill": "green"}, {"name": "&nbsp;", "country": "SOV", "lon": "78.0333", "yield": "20", "lat": "49.8233", "depth": "0", "date": "1982-02-19 03:56:13", "id": "1459", "fill": "green"}, {"name": "BUNKER", "country": "USA", "lon": "-116.033", "yield": "20", "lat": "37.132", "depth": ".226", "date": "1964-02-13 15:30:00", "id": "146", "fill": "green"}, {"name": "&nbsp;", "country": "SOV", "lon": "78.8867", "yield": "150", "lat": "49.9183", "depth": "0", "date": "1982-04-25 03:23:08", "id": "1460", "fill": "green"}, {"name": "&nbsp;", "country": "SOV", "lon": "78.1108", "yield": "20", "lat": "49.7714", "depth": "0", "date": "1982-06-25 02:03:07", "id": "1461", "fill": "green"}, {"name": "&nbsp;", "country": "SOV", "lon": "78.8117", "yield": "150", "lat": "49.9586", "depth": "0", "date": "1982-07-04 01:17:17", "id": "1462", "fill": "green"}, {"name": "&nbsp;", "country": "SOV", "lon": "78.0308", "yield": "20", "lat": "49.7403", "depth": "0", "date": "1982-08-23 02:43:08", "id": "1463", "fill": "green"}, {"name": "&nbsp;", "country": "SOV", "lon": "78.7614", "yield": "20", "lat": "49.9142", "depth": "0", "date": "1982-08-31 01:31:03", "id": "1464", "fill": "green"}, {"name": "&nbsp;", "country": "SOV", "lon": "78.1247", "yield": "20", "lat": "49.7792", "depth": "0", "date": "1982-09-21 02:57:03", "id": "1465", "fill": "green"}, {"name": "&nbsp;", "country": "SOV", "lon": "78.8097", "yield": "150", "lat": "49.9308", "depth": "0", "date": "1982-12-05 03:37:15", "id": "1466", "fill": "green"}, {"name": "&nbsp;", "country": "SOV", "lon": "78.035", "yield": "20", "lat": "49.7811", "depth": "0", "date": "1982-12-25 04:23:08", "id": "1467", "fill": "green"}, {"name": "&nbsp;", "country": "SOV", "lon": "78.9953", "yield": "150", "lat": "50.0683", "depth": "0", "date": "1982-12-26 03:35:17", "id": "1468", "fill": "green"}, {"name": "&nbsp;", "country": "SOV", "lon": "78.0333", "yield": "10", "lat": "49.8233", "depth": "0", "date": "1983-03-11 00:00:00", "id": "1469", "fill": "green"}, {"name": "BONEFISH", "country": "USA", "lon": "-116.034", "yield": "20", "lat": "37.059", "depth": ".301", "date": "1964-02-18 15:37:19", "id": "147", "fill": "green"}, {"name": "&nbsp;", "country": "SOV", "lon": "78.0406", "yield": "20", "lat": "49.785", "depth": "0", "date": "1983-03-30 04:17:10", "id": "1470", "fill": "green"}, {"name": "&nbsp;", "country": "SOV", "lon": "78.0847", "yield": "20", "lat": "49.7856", "depth": "0", "date": "1983-04-12 03:41:08", "id": "1471", "fill": "green"}, {"name": "&nbsp;", "country": "SOV", "lon": "78.1203", "yield": "20", "lat": "49.7411", "depth": "0", "date": "1983-05-30 03:33:47", "id": "1472", "fill": "green"}, {"name": "&nbsp;", "country": "SOV", "lon": "78.8981", "yield": "150", "lat": "49.925", "depth": "0", "date": "1983-06-12 02:36:46", "id": "1473", "fill": "green"}, {"name": "&nbsp;", "country": "SOV", "lon": "78.0358", "yield": "20", "lat": "49.7397", "depth": "0", "date": "1983-06-24 02:56:14", "id": "1474", "fill": "green"}, {"name": "&nbsp;", "country": "SOV", "lon": "78.0842", "yield": "20", "lat": "49.7847", "depth": "0", "date": "1983-09-11 06:33:13", "id": "1475", "fill": "green"}, {"name": "&nbsp;", "country": "SOV", "lon": "78.7569", "yield": "150", "lat": "49.925", "depth": "0", "date": "1983-10-06 01:47:09", "id": "1476", "fill": "green"}, {"name": "&nbsp;", "country": "SOV", "lon": "78.8217", "yield": "150", "lat": "49.9125", "depth": "0", "date": "1983-10-26 01:55:07", "id": "1477", "fill": "green"}, {"name": "&nbsp;", "country": "SOV", "lon": "78.1247", "yield": "20", "lat": "49.7792", "depth": "0", "date": "1983-11-02 04:18:54", "id": "1478", "fill": "green"}, {"name": "&nbsp;", "country": "SOV", "lon": "78.9561", "yield": "20", "lat": "50.0508", "depth": "0", "date": "1983-11-20 03:27:07", "id": "1479", "fill": "green"}, {"name": "MACKEREL", "country": "USA", "lon": "-116.052", "yield": "20", "lat": "37.096", "depth": ".334", "date": "1964-02-18 15:37:37", "id": "148", "fill": "green"}, {"name": "&nbsp;", "country": "SOV", "lon": "78.0958", "yield": "20", "lat": "49.7303", "depth": "0", "date": "1983-11-29 02:19:09", "id": "1480", "fill": "green"}, {"name": "&nbsp;", "country": "SOV", "lon": "78.0486", "yield": "20", "lat": "49.7586", "depth": "0", "date": "1983-11-29 02:19:09", "id": "1481", "fill": "green"}, {"name": "&nbsp;", "country": "SOV", "lon": "78.1092", "yield": "20", "lat": "49.79", "depth": "0", "date": "1983-12-26 04:29:09", "id": "1482", "fill": "green"}, {"name": "&nbsp;", "country": "SOV", "lon": "78.7436", "yield": "150", "lat": "49.9003", "depth": "0", "date": "1984-02-19 03:57:06", "id": "1483", "fill": "green"}, {"name": "&nbsp;", "country": "SOV", "lon": "78.9544", "yield": "150", "lat": "50.0542", "depth": "0", "date": "1984-03-07 02:39:09", "id": "1484", "fill": "green"}, {"name": "&nbsp;", "country": "SOV", "lon": "78.9269", "yield": "150", "lat": "49.9111", "depth": "0", "date": "1984-03-29 05:19:11", "id": "1485", "fill": "green"}, {"name": "&nbsp;", "country": "SOV", "lon": "78.0892", "yield": "150", "lat": "49.7606", "depth": "0", "date": "1984-04-15 03:17:11", "id": "1486", "fill": "green"}, {"name": "&nbsp;", "country": "SOV", "lon": "78.8506", "yield": "150", "lat": "49.9358", "depth": "0", "date": "1984-04-25 01:09:06", "id": "1487", "fill": "green"}, {"name": "&nbsp;", "country": "SOV", "lon": "79.0056", "yield": "150", "lat": "49.9789", "depth": "0", "date": "1984-05-26 03:13:15", "id": "1488", "fill": "green"}, {"name": "&nbsp;", "country": "SOV", "lon": "78.8772", "yield": "150", "lat": "49.9094", "depth": "0", "date": "1984-07-14 01:09:13", "id": "1489", "fill": "green"}, {"name": "KLICKITAT", "country": "USA", "lon": "-116.041", "yield": "70", "lat": "37.151", "depth": ".493", "date": "1964-02-20 15:30:00", "id": "149", "fill": "green"}, {"name": "&nbsp;", "country": "SOV", "lon": "78.0875", "yield": "20", "lat": "49.8044", "depth": "0", "date": "1984-09-09 02:59:09", "id": "1490", "fill": "green"}, {"name": "&nbsp;", "country": "SOV", "lon": "78.0864", "yield": "20", "lat": "49.7294", "depth": "0", "date": "1984-10-18 04:57:08", "id": "1491", "fill": "green"}, {"name": "&nbsp;", "country": "SOV", "lon": "78.9281", "yield": "150", "lat": "49.9347", "depth": "0", "date": "1984-10-27 01:50:13", "id": "1492", "fill": "green"}, {"name": "&nbsp;", "country": "SOV", "lon": "78.0594", "yield": "20", "lat": "49.8125", "depth": "0", "date": "1984-11-23 03:55:08", "id": "1493", "fill": "green"}, {"name": "&nbsp;", "country": "SOV", "lon": "79.0075", "yield": "150", "lat": "50.0097", "depth": "0", "date": "1984-12-02 03:19:09", "id": "1494", "fill": "green"}, {"name": "&nbsp;", "country": "SOV", "lon": "78.8086", "yield": "150", "lat": "49.9458", "depth": "0", "date": "1984-12-16 03:55:05", "id": "1495", "fill": "green"}, {"name": "&nbsp;", "country": "SOV", "lon": "78.7039", "yield": "150", "lat": "49.8803", "depth": "0", "date": "1984-12-28 03:50:13", "id": "1496", "fill": "green"}, {"name": "&nbsp;", "country": "SOV", "lon": "78.7806", "yield": "150", "lat": "49.8992", "depth": "0", "date": "1985-02-10 03:27:10", "id": "1497", "fill": "green"}, {"name": "&nbsp;", "country": "SOV", "lon": "78.8808", "yield": "150", "lat": "49.9267", "depth": "0", "date": "1985-04-25 00:57:09", "id": "1498", "fill": "green"}, {"name": "&nbsp;", "country": "SOV", "lon": "78.8428", "yield": "150", "lat": "49.9086", "depth": "0", "date": "1985-06-15 00:57:03", "id": "1499", "fill": "green"}, {"name": "BERNALILLO", "country": "USA", "lon": "-116.034", "yield": ".015", "lat": "37.05", "depth": ".139", "date": "1958-09-17 19:30:00", "id": "15", "fill": "green"}, {"name": "HANDICAP", "country": "USA", "lon": "-116.037", "yield": "20", "lat": "37.13", "depth": ".144", "date": "1964-03-12 15:00:00", "id": "150", "fill": "green"}, {"name": "&nbsp;", "country": "SOV", "lon": "78.6686", "yield": "150", "lat": "49.8644", "depth": "0", "date": "1985-06-30 02:39:05", "id": "1500", "fill": "green"}, {"name": "&nbsp;", "country": "SOV", "lon": "78.0492", "yield": "20", "lat": "49.7506", "depth": "0", "date": "1985-07-11 02:57:02", "id": "1501", "fill": "green"}, {"name": "&nbsp;", "country": "SOV", "lon": "78.0686", "yield": "20", "lat": "49.8011", "depth": "0", "date": "1985-07-19 04:00:08", "id": "1502", "fill": "green"}, {"name": "&nbsp;", "country": "SOV", "lon": "78.7858", "yield": "150", "lat": "49.9483", "depth": "0", "date": "1985-07-20 00:53:17", "id": "1503", "fill": "green"}, {"name": "&nbsp;", "country": "SOV", "lon": "78.1494", "yield": "20", "lat": "49.8192", "depth": "0", "date": "1985-07-25 03:11:09", "id": "1504", "fill": "green"}, {"name": "&nbsp;", "country": "SOV", "lon": "78.0811", "yield": "20", "lat": "49.8342", "depth": "0", "date": "1987-02-26 04:58:24", "id": "1505", "fill": "green"}, {"name": "&nbsp;", "country": "SOV", "lon": "78.8261", "yield": "20", "lat": "49.9358", "depth": "0", "date": "1987-03-12 01:57:20", "id": "1506", "fill": "green"}, {"name": "&nbsp;", "country": "SOV", "lon": "78.7803", "yield": "150", "lat": "49.9181", "depth": "0", "date": "1987-04-03 01:17:10", "id": "1507", "fill": "green"}, {"name": "&nbsp;", "country": "SOV", "lon": "78.1144", "yield": "20", "lat": "49.7539", "depth": "0", "date": "1987-04-03 01:17:12", "id": "1508", "fill": "green"}, {"name": "&nbsp;", "country": "SOV", "lon": "78.6708", "yield": "20", "lat": "49.8831", "depth": "0", "date": "1987-04-17 01:03:07", "id": "1509", "fill": "green"}, {"name": "PIKE", "country": "USA", "lon": "-116.012", "yield": "20", "lat": "37.05", "depth": ".114", "date": "1964-03-13 16:02:00", "id": "151", "fill": "green"}, {"name": "&nbsp;", "country": "SOV", "lon": "78.0122", "yield": "20", "lat": "49.7758", "depth": "0", "date": "1987-05-06 04:02:08", "id": "1510", "fill": "green"}, {"name": "&nbsp;", "country": "SOV", "lon": "78.0617", "yield": "20", "lat": "49.8367", "depth": "0", "date": "1987-06-06 02:37:09", "id": "1511", "fill": "green"}, {"name": "&nbsp;", "country": "SOV", "lon": "78.7464", "yield": "20", "lat": "49.9367", "depth": "0", "date": "1987-06-20 00:53:07", "id": "1512", "fill": "green"}, {"name": "&nbsp;", "country": "SOV", "lon": "78.0197", "yield": "150", "lat": "49.7758", "depth": "0", "date": "1987-07-17 01:17:09", "id": "1513", "fill": "green"}, {"name": "&nbsp;", "country": "SOV", "lon": "78.8747", "yield": "150", "lat": "49.8806", "depth": "0", "date": "1987-08-02 00:58:09", "id": "1514", "fill": "green"}, {"name": "&nbsp;", "country": "SOV", "lon": "78.0875", "yield": "20", "lat": "49.8044", "depth": "0", "date": "1987-09-18 02:32:10", "id": "1515", "fill": "green"}, {"name": "&nbsp;", "country": "SOV", "lon": "78.0867", "yield": "20", "lat": "49.7297", "depth": "0", "date": "1987-10-16 06:06:07", "id": "1516", "fill": "green"}, {"name": "&nbsp;", "country": "SOV", "lon": "78.7581", "yield": "150", "lat": "49.8986", "depth": "0", "date": "1987-11-15 03:31:09", "id": "1517", "fill": "green"}, {"name": "&nbsp;", "country": "SOV", "lon": "78.7933", "yield": "150", "lat": "49.9614", "depth": "0", "date": "1987-12-13 03:21:07", "id": "1518", "fill": "green"}, {"name": "&nbsp;", "country": "SOV", "lon": "78.0122", "yield": "20", "lat": "49.7758", "depth": "0", "date": "1987-12-20 02:55:09", "id": "1519", "fill": "green"}, {"name": "HOOK", "country": "USA", "lon": "-116.031", "yield": "20", "lat": "37.129", "depth": ".204", "date": "1964-04-14 14:40:00", "id": "152", "fill": "green"}, {"name": "&nbsp;", "country": "SOV", "lon": "78.7931", "yield": "150", "lat": "49.8794", "depth": "0", "date": "1987-12-27 03:05:07", "id": "1520", "fill": "green"}, {"name": "&nbsp;", "country": "SOV", "lon": "78.0197", "yield": "20", "lat": "49.7758", "depth": "0", "date": "1988-02-06 04:19:09", "id": "1521", "fill": "green"}, {"name": "&nbsp;", "country": "SOV", "lon": "78.8681", "yield": "150", "lat": "49.9322", "depth": "0", "date": "1988-02-13 03:05:08", "id": "1522", "fill": "green"}, {"name": "&nbsp;", "country": "SOV", "lon": "78.9064", "yield": "150", "lat": "49.9069", "depth": "0", "date": "1988-04-03 01:33:08", "id": "1523", "fill": "green"}, {"name": "&nbsp;", "country": "SOV", "lon": "78.1069", "yield": "20", "lat": "49.7903", "depth": "0", "date": "1988-04-22 09:30:09", "id": "1524", "fill": "green"}, {"name": "&nbsp;", "country": "SOV", "lon": "78.7503", "yield": "150", "lat": "49.9494", "depth": "0", "date": "1988-05-04 00:57:09", "id": "1525", "fill": "green"}, {"name": "&nbsp;", "country": "SOV", "lon": "78.9606", "yield": "20", "lat": "50.0189", "depth": "0", "date": "1988-06-14 02:27:09", "id": "1526", "fill": "green"}, {"name": "&nbsp;", "country": "SOV", "lon": "78.8231", "yield": "150", "lat": "49.8778", "depth": "0", "date": "1988-09-14 04:00:00", "id": "1527", "fill": "green"}, {"name": "&nbsp;", "country": "SOV", "lon": "78.0172", "yield": "20", "lat": "49.78", "depth": "0", "date": "1988-10-18 03:40:09", "id": "1528", "fill": "green"}, {"name": "&nbsp;", "country": "SOV", "lon": "78.9689", "yield": "20", "lat": "50.0467", "depth": "0", "date": "1988-11-12 03:30:06", "id": "1529", "fill": "green"}, {"name": "STURGEON", "country": "USA", "lon": "-116.019", "yield": "20", "lat": "37.044", "depth": ".15", "date": "1964-04-15 14:30:00", "id": "153", "fill": "green"}, {"name": "&nbsp;", "country": "SOV", "lon": "78.0372", "yield": "20", "lat": "49.7794", "depth": "0", "date": "1988-11-23 03:57:09", "id": "1530", "fill": "green"}, {"name": "&nbsp;", "country": "SOV", "lon": "78.9236", "yield": "150", "lat": "49.8797", "depth": "0", "date": "1988-12-17 04:18:09", "id": "1531", "fill": "green"}, {"name": "&nbsp;", "country": "SOV", "lon": "78.0686", "yield": "20", "lat": "49.8011", "depth": "0", "date": "1988-12-28 05:28:10", "id": "1532", "fill": "green"}, {"name": "&nbsp;", "country": "SOV", "lon": "78.8194", "yield": "150", "lat": "49.9394", "depth": "0", "date": "1989-01-22 03:57:09", "id": "1533", "fill": "green"}, {"name": "&nbsp;", "country": "SOV", "lon": "78.7111", "yield": "150", "lat": "49.9186", "depth": "0", "date": "1989-02-12 04:15:09", "id": "1534", "fill": "green"}, {"name": "&nbsp;", "country": "SOV", "lon": "78.0597", "yield": "20", "lat": "49.8278", "depth": "0", "date": "1989-02-17 04:01:09", "id": "1535", "fill": "green"}, {"name": "&nbsp;", "country": "SOV", "lon": "78.7803", "yield": "150", "lat": "49.8678", "depth": "0", "date": "1989-07-08 03:47:00", "id": "1536", "fill": "green"},